{"geocoded_waypoints": [{"geocoder_status": "OK", "place_id": "ChIJDZsRTzoIxkcR9NePIZfKsPs", "types": ["establishment", "point_of_interest", "transit_station"]}, {"geocoder_status": "OK", "place_id": "ChIJdf5zYLQJxkcRAXXZFifCCC8", "types": ["establishment", "parking", "point_of_interest"]}], "routes": [{"bounds": {"northeast": {"lat": 52.4014393, "lng": 4.9033111}, "southwest": {"lat": 52.3804453, "lng": 4.8893106}}, "copyrights": "Powered by Google, \u00a92026 Google", "legs": [{"arrival_time": {"text": "4:01\u202fPM", "time_zone": "Europe/Amsterdam", "value": 1767366065}, "departure_time": {"text": "3:29\u202fPM", "time_zone": "Europe/Amsterdam", "value": 1767364168}, "distance": {"text": "3.2 km", "value": 3202}, "duration": {"text": "32 mins", "value": 1897}, "end_address": "Overhoeksplein 51, 1031 KS Amsterdam, Netherlands", "end_location": {"lat": 52.38433149999999, "lng": 4.902465299999999}, "start_address": "Ndsm, 1033 RD Amsterdam, Netherlands", "start_location": {"lat": 52.4012, "lng": 4.8915}, "steps": [{"distance": {"text": "26 m", "value": 26}, "duration": {"text": "1 min", "value": 32}, "end_location": {"lat": 52.4014393, "lng": 4.891524899999999}, "html_instructions": "Walk to NDSM-werf", "polyline": {"points": "ory~H{jz\\o@C"}, "start_location": {"lat": 52.4012, "lng": 4.8915}, "steps": [{"distance": {"text": "26 m", "value": 26}, "duration": {"text": "1 min", "value": 32}, "end_location": {"lat": 52.4014393, "lng": 4.891524899999999}, "polyline": {"points": "ory~H{jz\\o@C"}, "start_location": {"lat": 52.4012, "lng": 4.8915}, "travel_mode": "WALKING"}], "travel_mode": "WALKING"}, {"distance": {"text": "2.5 km", "value": 2461}, "duration": {"text": "14 mins", "value": 822}, "end_location": {"lat": 52.38082, "lng": 4.89916}, "html_instructions": "Ferry towards Centraal Station", "polyline": {"points": "qry~Hkgz\\LKdDnEhAbA|@b@l@R`@Dz@Op@]hAi@hA}@z@}@r@w@rCiEhEsE`IeHbTiJzX}InCiAzB_A`F{AdFwA|Cu@^QXOJAHAZA\\DVHPLRPPT^v@BB"}, "start_location": {"lat": 52.40121, "lng": 4.89094}, "transit_details": {"arrival_stop": {"location": {"lat": 52.38082, "lng": 4.89916}, "name": "Centraal Station"}, "arrival_time": {"text": "3:43\u202fPM", "time_zone": "Europe/Amsterdam", "value": 1767365022}, "departure_stop": {"location": {"lat": 52.40121, "lng": 4.89094}, "name": "NDSM-werf"}, "departure_time": {"text": "3:30\u202fPM", "time_zone": "Europe/Amsterdam", "value": 1767364200}, "headsign": "Centraal Station", "line": {"agencies": [{"name": "GVB", "phone": "011 31 900 8011", "url": "http://www.gvb.nl/"}], "color": "#912e7b", "name": "Lijn F4", "short_name": "F4", "text_color": "#ffffff", "vehicle": {"icon": "//maps.gstatic.com/mapfiles/transit/iw2/6/ferry.png", "name": "Ferry", "type": "FERRY"}}, "num_stops": 1}, "travel_mode": "TRANSIT"}, {"distance": {"text": "89 m", "value": 89}, "duration": {"text": "1 min", "value": 68}, "end_location": {"lat": 52.3805929, "lng": 4.8996664}, "html_instructions": "Walk to Centraal Station", "polyline": {"points": "csu~Huz{\\^h@FQ@G@EFSHWJe@[_@"}, "start_location": {"lat": 52.3808233, "lng": 4.8991533}, "steps": [{"distance": {"text": "23 m", "value": 23}, "duration": {"text": "1 min", "value": 19}, "end_location": {"lat": 52.3806605, "lng": 4.8989362}, "html_instructions": "Head <b>southwest</b>", "polyline": {"points": "csu~Huz{\\^h@"}, "start_location": {"lat": 52.3808233, "lng": 4.8991533}, "travel_mode": "WALKING"}, {"distance": {"text": "46 m", "value": 46}, "duration": {"text": "1 min", "value": 33}, "end_location": {"lat": 52.3804453, "lng": 4.8995092}, "html_instructions": "Turn <b>left</b>", "maneuver": "turn-left", "polyline": {"points": "cru~Hky{\\FQ@G@EFSHWJe@"}, "start_location": {"lat": 52.3806605, "lng": 4.8989362}, "travel_mode": "WALKING"}, {"distance": {"text": "20 m", "value": 20}, "duration": {"text": "1 min", "value": 16}, "end_location": {"lat": 52.3805929, "lng": 4.8996664}, "html_instructions": "Turn <b>left</b>", "maneuver": "turn-left", "polyline": {"points": "ypu~H}|{\\[_@"}, "start_location": {"lat": 52.3804453, "lng": 4.8995092}, "travel_mode": "WALKING"}], "travel_mode": "WALKING"}, {"distance": {"text": "0.3 km", "value": 298}, "duration": {"text": "5 mins", "value": 282}, "end_location": {"lat": 52.38216000000001, "lng": 4.90299}, "html_instructions": "Ferry towards Buiksloterweg", "polyline": {"points": "yqu~Hw}{\\@EUYYa@i@aAcAmCc@sAs@oDKm@Om@Yy@KL"}, "start_location": {"lat": 52.38061, "lng": 4.89964}, "transit_details": {"arrival_stop": {"location": {"lat": 52.38216000000001, "lng": 4.90299}, "name": "Buiksloterweg"}, "arrival_time": {"text": "3:56\u202fPM", "time_zone": "Europe/Amsterdam", "value": 1767365802}, "departure_stop": {"location": {"lat": 52.38061, "lng": 4.89964}, "name": "Centraal Station"}, "departure_time": {"text": "3:52\u202fPM", "time_zone": "Europe/Amsterdam", "value": 1767365520}, "headsign": "Buiksloterweg", "line": {"agencies": [{"name": "GVB", "phone": "011 31 900 8011", "url": "http://www.gvb.nl/"}], "color": "#0ba13b", "name": "Lijn F3", "short_name": "F3", "text_color": "#ffffff", "vehicle": {"icon": "//maps.gstatic.com/mapfiles/transit/iw2/6/ferry.png", "name": "Ferry", "type": "FERRY"}}, "num_stops": 1}, "travel_mode": "TRANSIT"}, {"distance": {"text": "0.3 km", "value": 328}, "duration": {"text": "4 mins", "value": 263}, "end_location": {"lat": 52.38433149999999, "lng": 4.902465299999999}, "html_instructions": "Walk to Overhoeksplein 51, 1031 KS Amsterdam, Netherlands", "polyline": {"points": "o{u~H}s|\\CKEKCB?DABAFCDADEFEDABGHEDCBCBEB]OGDIJKLKLOPGLg@n@GH]b@u@sBc@oAcArAIJY^"}, "start_location": {"lat": 52.3821569, "lng": 4.903192799999999}, "steps": [{"distance": {"text": "23 m", "value": 23}, "duration": {"text": "1 min", "value": 19}, "end_location": {"lat": 52.3822133, "lng": 4.9033111}, "html_instructions": "Head <b>northeast</b> toward <b>Buiksloterweg</b>", "polyline": {"points": "o{u~H}s|\\CKEK"}, "start_location": {"lat": 52.3821569, "lng": 4.903192799999999}, "travel_mode": "WALKING"}, {"distance": {"text": "36 m", "value": 36}, "duration": {"text": "1 min", "value": 29}, "end_location": {"lat": 52.3826406, "lng": 4.9029924}, "html_instructions": "Turn <b>left</b> onto <b>Buiksloterweg</b>", "maneuver": "turn-left", "polyline": {"points": "y{u~Hut|\\CB?DABAFCDADEFEDABGHEDCBCBEB]O"}, "start_location": {"lat": 52.3822133, "lng": 4.9033111}, "travel_mode": "WALKING"}, {"distance": {"text": "0.1 km", "value": 107}, "duration": {"text": "1 min", "value": 87}, "end_location": {"lat": 52.3833603, "lng": 4.9021288}, "html_instructions": "Continue onto <b>IJpromenade</b>", "polyline": {"points": "o~u~Hur|\\GDIJKLKLOPGLg@n@GH]b@"}, "start_location": {"lat": 52.3826406, "lng": 4.9029924}, "travel_mode": "WALKING"}, {"distance": {"text": "89 m", "value": 89}, "duration": {"text": "1 min", "value": 70}, "end_location": {"lat": 52.3838073, "lng": 4.9031107}, "html_instructions": "Turn <b>right</b> toward <b>Overhoeksplein</b>", "maneuver": "turn-right", "polyline": {"points": "_cv~Him|\\u@sBc@oA"}, "start_location": {"lat": 52.3833603, "lng": 4.9021288}, "travel_mode": "WALKING"}, {"distance": {"text": "73 m", "value": 73}, "duration": {"text": "1 min", "value": 58}, "end_location": {"lat": 52.38433149999999, "lng": 4.902465299999999}, "html_instructions": "Turn <b>left</b> onto <b>Overhoeksplein</b><div style=\"font-size:0.9em\">Destination will be on the left</div>", "maneuver": "turn-left", "polyline": {"points": "yev~Hms|\\cArAIJY^"}, "start_location": {"lat": 52.3838073, "lng": 4.9031107}, "travel_mode": "WALKING"}], "travel_mode": "WALKING"}], "traffic_speed_entry": [], "via_waypoint": []}], "overview_polyline": {"points": "ory~H{jz\\o@Cl@rBLKdDnEhAbA|@b@l@R`@Dz@Op@]hAi@hA}@nBuBrCiEhEsE`IeHbTiJzX}InCiAzB_A`F{AdFwA|Cu@x@a@TCx@BVHPLd@f@b@z@^j@HY^wA[_@CD@EUYcAcBgBaF_A}Ei@gBKL?g@IWGTQXSVIF]OGDUX[^uAjByAcEmA~AY^"}, "summary": "", "warnings": ["Walking directions are in beta. Use caution \u2013 This route may be missing sidewalks or pedestrian paths."], "waypoint_order": []}], "status": "OK"}