{"geocoded_waypoints": [{"geocoder_status": "OK", "place_id": "ChIJVVV0JdsJxkcRMvZgKbuB6tw", "types": ["street_address", "subpremise"]}, {"geocoder_status": "OK", "place_id": "ChIJUdi019EJxkcRuHL3uO_MTao", "types": ["street_address", "subpremise"]}], "routes": [{"bounds": {"northeast": {"lat": 52.38174, "lng": 4.8835326}, "southwest": {"lat": 52.3737435, "lng": 4.876407899999999}}, "copyrights": "Powered by Google, \u00a92026 Google", "legs": [{"arrival_time": {"text": "3:42\u202fPM", "time_zone": "Europe/Amsterdam", "value": 1767364926}, "departure_time": {"text": "3:28\u202fPM", "time_zone": "Europe/Amsterdam", "value": 1767364118}, "distance": {"text": "1.6 km", "value": 1617}, "duration": {"text": "13 mins", "value": 808}, "end_address": "Willemsstraat 99, 1015 HZ Amsterdam, Netherlands", "end_location": {"lat": 52.3810431, "lng": 4.8835326}, "start_address": "Bloemgracht 43-1, 1016 KD Amsterdam, Netherlands", "start_location": {"lat": 52.3747929, "lng": 4.8816448}, "steps": [{"distance": {"text": "0.4 km", "value": 417}, "duration": {"text": "6 mins", "value": 343}, "end_location": {"lat": 52.37411179999999, "lng": 4.876474}, "html_instructions": "Walk to Bloemgracht", "polyline": {"points": "mmt~Hgmx\\NjABHTbBRtARlA@NHf@Hj@DRD\\Jv@F`@XvBFRLz@DXBRD\\?@@@BR@J@F?HSJQE@b@@ZAXC\\QCGCGC"}, "start_location": {"lat": 52.3747929, "lng": 4.8816448}, "steps": [{"distance": {"text": "0.3 km", "value": 335}, "duration": {"text": "5 mins", "value": 274}, "end_location": {"lat": 52.3737435, "lng": 4.8770415}, "html_instructions": "Head <b>west</b> on <b>Bloemgracht</b> toward <b>Eerste Bloemdwarsstraat</b>", "polyline": {"points": "mmt~Hgmx\\NjABHTbBRtARlA@NHf@Hj@DRD\\Jv@F`@XvBFRLz@DXBRD\\?@@@BR@J@F?H"}, "start_location": {"lat": 52.3747929, "lng": 4.8816448}, "travel_mode": "WALKING"}, {"distance": {"text": "21 m", "value": 21}, "duration": {"text": "1 min", "value": 17}, "end_location": {"lat": 52.3739293, "lng": 4.8770058}, "html_instructions": "Turn <b>right</b> onto <b>Lijnbaansgracht</b>", "maneuver": "turn-right", "polyline": {"points": "{ft~Hopw\\SJQE"}, "start_location": {"lat": 52.3737435, "lng": 4.8770415}, "travel_mode": "WALKING"}, {"distance": {"text": "47 m", "value": 47}, "duration": {"text": "1 min", "value": 39}, "end_location": {"lat": 52.3739448, "lng": 4.876407899999999}, "html_instructions": "Turn <b>left</b> onto <b>Bullebaksluis</b>", "maneuver": "turn-left", "polyline": {"points": "aht~Hipw\\@b@@ZAXC\\"}, "start_location": {"lat": 52.3739293, "lng": 4.8770058}, "travel_mode": "WALKING"}, {"distance": {"text": "14 m", "value": 14}, "duration": {"text": "1 min", "value": 13}, "end_location": {"lat": 52.37411179999999, "lng": 4.876474}, "html_instructions": "Turn <b>right</b> onto <b>Marnixstraat</b>", "maneuver": "turn-right", "polyline": {"points": "cht~Hqlw\\QCGCGC"}, "start_location": {"lat": 52.3739448, "lng": 4.876407899999999}, "travel_mode": "WALKING"}], "travel_mode": "WALKING"}, {"distance": {"text": "0.9 km", "value": 893}, "duration": {"text": "4 mins", "value": 219}, "end_location": {"lat": 52.381733, "lng": 4.881257}, "html_instructions": "Tram towards Zoutkeetsgracht", "polyline": {"points": "ujt~Hgmw\\ALUIOOc@UMGmBeAkEaCsEaC@IOKICIEUOSIYOGC[UEAOKEEEAAAC?EEQOCA_@YGGmBeAqE_C_@SGCuAw@EAIESMECIEqAs@IGGEEAKI@E"}, "start_location": {"lat": 52.3743461, "lng": 4.8765157}, "transit_details": {"arrival_stop": {"location": {"lat": 52.381733, "lng": 4.881257}, "name": "Nieuwe Willemsstraat"}, "arrival_time": {"text": "3:38\u202fPM", "time_zone": "Europe/Amsterdam", "value": 1767364680}, "departure_stop": {"location": {"lat": 52.3743461, "lng": 4.8765157}, "name": "Bloemgracht"}, "departure_time": {"text": "3:34\u202fPM", "time_zone": "Europe/Amsterdam", "value": 1767364461}, "headsign": "Zoutkeetsgracht", "line": {"agencies": [{"name": "GVB", "phone": "011 31 900 8011", "url": "http://www.gvb.nl/"}], "color": "#a6ce3a", "name": "Lijn 13", "short_name": "13", "text_color": "#ffffff", "url": "http://www.gvb.nl/lijn/tram/13", "vehicle": {"icon": "//maps.gstatic.com/mapfiles/transit/iw2/6/tram2.png", "name": "Tram", "type": "TRAM"}}, "num_stops": 2}, "travel_mode": "TRANSIT"}, {"distance": {"text": "0.3 km", "value": 307}, "duration": {"text": "4 mins", "value": 246}, "end_location": {"lat": 52.3810431, "lng": 4.8835326}, "html_instructions": "Walk to Willemsstraat 99, 1015 HZ Amsterdam, Netherlands", "polyline": {"points": "uxu~Hkkx\\LHNHHDXNv@b@RVNFBKFg@BODYCUVLCi@C[?EAIQuBIcAEWUuC"}, "start_location": {"lat": 52.3817139, "lng": 4.881340199999999}, "steps": [{"distance": {"text": "0.1 km", "value": 100}, "duration": {"text": "1 min", "value": 81}, "end_location": {"lat": 52.3809178, "lng": 4.8807895}, "html_instructions": "Head <b>south</b> on <b>Marnixstraat</b> toward <b>Eerste Marnixplantsoen</b>", "polyline": {"points": "uxu~Hkkx\\LHNHHDXNv@b@RVNF"}, "start_location": {"lat": 52.3817139, "lng": 4.881340199999999}, "travel_mode": "WALKING"}, {"distance": {"text": "44 m", "value": 44}, "duration": {"text": "1 min", "value": 35}, "end_location": {"lat": 52.3808073, "lng": 4.8812561}, "html_instructions": "Turn <b>left</b> onto <b>Nieuwe Willemsstraat</b>", "maneuver": "turn-left", "polyline": {"points": "wsu~H}gx\\BKFg@BODY"}, "start_location": {"lat": 52.3809178, "lng": 4.8807895}, "travel_mode": "WALKING"}, {"distance": {"text": "0.2 km", "value": 163}, "duration": {"text": "2 mins", "value": 130}, "end_location": {"lat": 52.3810431, "lng": 4.8835326}, "html_instructions": "Continue onto <b>Willemsstraat</b>", "polyline": {"points": "asu~H{jx\\CUVLCi@C[?EAIQuBIcAEWUuC"}, "start_location": {"lat": 52.3808073, "lng": 4.8812561}, "travel_mode": "WALKING"}], "travel_mode": "WALKING"}], "traffic_speed_entry": [], "via_waypoint": []}], "overview_polyline": {"points": "mmt~Hgmx\\fB`M^jC`@jCRtAJt@Fp@SJQEB~@Ev@YGw@MALUIs@e@{BmA_LcG@Iy@e@m@Yc@Ya@UEAWUc@[uBmAoIoEi@YmBgAQKDU`Ah@v@b@RVNFBKJw@DYCUVLCi@Ca@c@{EUuC"}, "summary": "", "warnings": ["Walking directions are in beta. Use caution \u2013 This route may be missing sidewalks or pedestrian paths."], "waypoint_order": []}], "status": "OK"}