{"geocoded_waypoints": [{"geocoder_status": "OK", "place_id": "ChIJuSeSfI0JxkcR0Fs3UVRYIJ0", "types": ["premise", "street_address"]}, {"geocoder_status": "OK", "place_id": "ChIJDdlyk-4JxkcRWXtP_3s_vng", "types": ["street_address", "subpremise"]}], "routes": [{"bounds": {"northeast": {"lat": 52.36107, "lng": 4.8996153}, "southwest": {"lat": 52.3558996, "lng": 4.8852312}}, "copyrights": "Powered by Google, \u00a92026 Google", "legs": [{"arrival_time": {"text": "3:43\u202fPM", "time_zone": "Europe/Amsterdam", "value": 1767365004}, "departure_time": {"text": "3:29\u202fPM", "time_zone": "Europe/Amsterdam", "value": 1767364142}, "distance": {"text": "1.6 km", "value": 1615}, "duration": {"text": "14 mins", "value": 862}, "end_address": "Museumpromenade 1, 1071 XX Amsterdam, Netherlands", "end_location": {"lat": 52.3599836, "lng": 4.8852312}, "start_address": "Albert Cuypstraat 182, 1073 BL Amsterdam, Netherlands", "start_location": {"lat": 52.3558996, "lng": 4.8950803}, "steps": [{"distance": {"text": "0.6 km", "value": 634}, "duration": {"text": "9 mins", "value": 538}, "end_location": {"lat": 52.3594293, "lng": 4.8983659}, "html_instructions": "Walk to Frederiksplein", "polyline": {"points": "kwp~Hga{\\Gc@Km@?CIi@Q}@?E_@cBAG[_BOw@k@sCg@oCc@uBAE[O?EE@aA^C?K?AECSIC]KKED`@C?@DBRI?]DQ?QDUDIBGBMBy@TEBWHi@PG@G@C@G?EABd@PADZA@Q@BX@DI@A?"}, "start_location": {"lat": 52.3558996, "lng": 4.8950803}, "steps": [{"distance": {"text": "0.3 km", "value": 337}, "duration": {"text": "5 mins", "value": 273}, "end_location": {"lat": 52.35728349999999, "lng": 4.8995472}, "html_instructions": "Head <b>east</b> on <b>Albert Cuypstraat</b> toward <b>Eerste Sweelinckstraat</b><div style=\"font-size:0.9em\">Parts of this road are closed Mon\u2013Fri 6:30\u202fAM\u2009\u2013\u200910:00\u202fPM</div>", "polyline": {"points": "kwp~Hga{\\Gc@Km@?CIi@Q}@?E_@cBAG[_BOw@k@sCg@oCc@uBAE[O?E"}, "start_location": {"lat": 52.3558996, "lng": 4.8950803}, "travel_mode": "WALKING"}, {"distance": {"text": "79 m", "value": 79}, "duration": {"text": "1 min", "value": 76}, "end_location": {"lat": 52.3579775, "lng": 4.8994513}, "html_instructions": "Turn <b>left</b> onto <b>Van Woustraat</b>", "maneuver": "turn-left", "polyline": {"points": "_`q~He}{\\E@aA^C?K?AECSIC]KKED`@"}, "start_location": {"lat": 52.35728349999999, "lng": 4.8995472}, "travel_mode": "WALKING"}, {"distance": {"text": "0.2 km", "value": 182}, "duration": {"text": "3 mins", "value": 156}, "end_location": {"lat": 52.3594399, "lng": 4.898879}, "html_instructions": "Continue onto <b>Westeinde</b>", "polyline": {"points": "kdq~Hq|{\\C?@DBRI?]DQ?QDUDIBGBMBy@TEBWHi@PG@G@C@G?EA"}, "start_location": {"lat": 52.3579775, "lng": 4.8994513}, "travel_mode": "WALKING"}, {"distance": {"text": "36 m", "value": 36}, "duration": {"text": "1 min", "value": 33}, "end_location": {"lat": 52.3594293, "lng": 4.8983659}, "html_instructions": "Turn <b>left</b> onto <b>Weteringschans</b>", "maneuver": "turn-left", "polyline": {"points": "omq~H_y{\\Bd@PADZA@Q@BX@DI@A?"}, "start_location": {"lat": 52.3594399, "lng": 4.898879}, "travel_mode": "WALKING"}], "travel_mode": "WALKING"}, {"distance": {"text": "0.8 km", "value": 795}, "duration": {"text": "3 mins", "value": 150}, "end_location": {"lat": 52.36107, "lng": 4.886909999999999}, "html_instructions": "Tram towards Station Sloterdijk", "polyline": {"points": "kmq~Hiq{\\DADn@D|@@`@BvBi@`T?N?B?`@?R?R@H?V?L?@AV?RIjD?J@HCbA?TAPAR?F?BAJAJAJCJEXEXETEPCLCHCHCLEHCHEJe@jAIPCHWr@Yt@CF[r@CFCHEJIX]fA[`AELGG"}, "start_location": {"lat": 52.3594198, "lng": 4.8976527}, "transit_details": {"arrival_stop": {"location": {"lat": 52.36107, "lng": 4.886909999999999}, "name": "Rijksmuseum"}, "arrival_time": {"text": "3:40\u202fPM", "time_zone": "Europe/Amsterdam", "value": 1767364830}, "departure_stop": {"location": {"lat": 52.3594198, "lng": 4.8976527}, "name": "Frederiksplein"}, "departure_time": {"text": "3:38\u202fPM", "time_zone": "Europe/Amsterdam", "value": 1767364680}, "headsign": "Station Sloterdijk", "line": {"agencies": [{"name": "GVB", "phone": "011 31 900 8011", "url": "http://www.gvb.nl/"}], "color": "#f26f48", "name": "Lijn 19", "short_name": "19", "text_color": "#ffffff", "url": "http://www.gvb.nl/lijn/tram/19", "vehicle": {"icon": "//maps.gstatic.com/mapfiles/transit/iw2/6/tram2.png", "name": "Tram", "type": "TRAM"}}, "num_stops": 2}, "travel_mode": "TRANSIT"}, {"distance": {"text": "0.2 km", "value": 186}, "duration": {"text": "3 mins", "value": 171}, "end_location": {"lat": 52.3599836, "lng": 4.8852312}, "html_instructions": "Walk to Museumpromenade 1, 1071 XX Amsterdam, Netherlands", "polyline": {"points": "iwq~Hwmy\\CLEXJFB@BBB@BDDFPRZd@DDJWDHRZIb@RVRXXf@b@n@"}, "start_location": {"lat": 52.3610053, "lng": 4.8868354}, "steps": [{"distance": {"text": "19 m", "value": 19}, "duration": {"text": "1 min", "value": 15}, "end_location": {"lat": 52.3610619, "lng": 4.8866439}, "html_instructions": "Head <b>northwest</b> on <b>Weteringschans</b> toward <b>Museumbrug</b>", "polyline": {"points": "iwq~Hwmy\\CLEX"}, "start_location": {"lat": 52.3610053, "lng": 4.8868354}, "travel_mode": "WALKING"}, {"distance": {"text": "86 m", "value": 86}, "duration": {"text": "1 min", "value": 81}, "end_location": {"lat": 52.3604379, "lng": 4.8861048}, "html_instructions": "Turn <b>left</b> onto <b>Museumbrug</b>", "maneuver": "turn-left", "polyline": {"points": "swq~Holy\\JFB@BBB@BDDFPRZd@DDJWDHRZ"}, "start_location": {"lat": 52.3610619, "lng": 4.8866439}, "travel_mode": "WALKING"}, {"distance": {"text": "81 m", "value": 81}, "duration": {"text": "1 min", "value": 75}, "end_location": {"lat": 52.3599836, "lng": 4.8852312}, "html_instructions": "Continue onto <b>Museumstraat</b><div style=\"font-size:0.9em\">Destination will be on the right</div>", "polyline": {"points": "wsq~Hciy\\Ib@RVRXXf@b@n@"}, "start_location": {"lat": 52.3604379, "lng": 4.8861048}, "travel_mode": "WALKING"}], "travel_mode": "WALKING"}], "traffic_speed_entry": [], "via_waypoint": []}], "overview_polyline": {"points": "kwp~Hga{\\o@cEeE}SAE[O?EE@eA^K?AECSICi@QD`@C?DXg@Dc@Du@PaCt@[DEABd@PADZSBD^K@@nCDAJlBDxCi@vU@hAAz@IvDAlACbAEf@UtAQr@Sl@kAzC}@xBq@vBa@nAGGJLIf@NHPRl@x@DDJWXd@Ib@RVl@`Ab@n@"}, "summary": "", "warnings": ["Walking directions are in beta. Use caution \u2013 This route may be missing sidewalks or pedestrian paths."], "waypoint_order": []}], "status": "OK"}