{"geocoded_waypoints": [{"geocoder_status": "OK", "place_id": "ChIJW_oq68YJxkcRJCGnCKsiSWY", "types": ["establishment", "point_of_interest", "transit_station"]}, {"geocoder_status": "OK", "place_id": "ChIJpYEN0MQJxkcRLg8evnnTLVA", "types": ["establishment", "point_of_interest"]}, {"geocoder_status": "OK", "place_id": "ChIJd0-7IIUJxkcRagYxZe-HBK0", "types": ["street_address", "subpremise"]}, {"geocoder_status": "OK", "place_id": "ChIJRaITmMEJxkcRMEqDTvNUOTs", "types": ["street_address"]}, {"geocoder_status": "OK", "place_id": "ChIJcYxL7sIJxkcRivffkyxb6sA", "types": ["premise", "street_address"]}], "routes": [{"bounds": {"northeast": {"lat": 52.3761396, "lng": 4.892835499999999}, "southwest": {"lat": 52.3683062, "lng": 4.8823485}}, "copyrights": "Powered by Google, \u00a92026 Google", "legs": [{"distance": {"text": "1.1 km", "value": 1125}, "duration": {"text": "5 mins", "value": 306}, "end_address": "Westerkerk, Prinsengracht 279, 1016 GW Amsterdam, Netherlands", "end_location": {"lat": 52.374506, "lng": 4.883386199999999}, "start_address": "Dam, 1012 SH Amsterdam, Netherlands", "start_location": {"lat": 52.3738105, "lng": 4.890889}, "steps": [{"distance": {"text": "0.2 km", "value": 250}, "duration": {"text": "1 min", "value": 43}, "end_location": {"lat": 52.37569509999999, "lng": 4.892835499999999}, "html_instructions": "Head <b>north</b> on <b>Nieuwezijds Voorburgwal</b> toward <b>Gravenstraat</b>", "polyline": {"points": "igt~Hagz\\A?QGKESSMMIGEEECEACCSQ[Yi@c@SSYWMOEGOOIMIMOSACo@iAU["}, "start_location": {"lat": 52.3738105, "lng": 4.890889}, "travel_mode": "BICYCLING"}, {"distance": {"text": "0.3 km", "value": 336}, "duration": {"text": "2 mins", "value": 135}, "end_location": {"lat": 52.3732485, "lng": 4.890372999999999}, "html_instructions": "Take the crosswalk", "polyline": {"points": "cst~Hgsz\\?@EFCHb@n@r@hABFPTNPDDLLb@`@FDBDjAfANJDDHFRRLJHFHFPHHD^NHBH@LDJBPFNNBR"}, "start_location": {"lat": 52.37569509999999, "lng": 4.892835499999999}, "travel_mode": "BICYCLING"}, {"distance": {"text": "0.4 km", "value": 386}, "duration": {"text": "2 mins", "value": 103}, "end_location": {"lat": 52.3740673, "lng": 4.8849915}, "html_instructions": "Slight <b>right</b> onto <b>Raadhuisstraat</b>", "maneuver": "turn-slight-right", "polyline": {"points": "yct~Hycz\\?n@ErAChBCfAAz@AN?LAFCv@?@Ep@Ev@?HARCZCx@Eb@AF?FCPAJCHCJCHADCFGPIPS`@IPGPELCLERG`@CXAl@"}, "start_location": {"lat": 52.3732485, "lng": 4.890372999999999}, "travel_mode": "BICYCLING"}, {"distance": {"text": "0.1 km", "value": 111}, "duration": {"text": "1 min", "value": 19}, "end_location": {"lat": 52.3741271, "lng": 4.883354}, "html_instructions": "Continue onto <b>Westermarkt</b>", "polyline": {"points": "}ht~Heby\\Ab@AJ@NCx@A|@AhAAdA"}, "start_location": {"lat": 52.3740673, "lng": 4.8849915}, "travel_mode": "BICYCLING"}, {"distance": {"text": "42 m", "value": 42}, "duration": {"text": "1 min", "value": 6}, "end_location": {"lat": 52.374506, "lng": 4.883386199999999}, "html_instructions": "Turn <b>right</b> onto <b>Prinsengracht</b><div style=\"font-size:0.9em\">Destination will be on the right</div>", "maneuver": "turn-right", "polyline": {"points": "iit~H}wx\\EAk@CK?G?EA"}, "start_location": {"lat": 52.3741271, "lng": 4.883354}, "travel_mode": "BICYCLING"}], "traffic_speed_entry": [], "via_waypoint": []}, {"distance": {"text": "90 m", "value": 90}, "duration": {"text": "1 min", "value": 15}, "end_address": "Prinsengracht 267, 1016 GV Amsterdam, Netherlands", "end_location": {"lat": 52.37524149999999, "lng": 4.883881}, "start_address": "Westerkerk, Prinsengracht 279, 1016 GW Amsterdam, Netherlands", "start_location": {"lat": 52.374506, "lng": 4.883386199999999}, "steps": [{"distance": {"text": "90 m", "value": 90}, "duration": {"text": "1 min", "value": 15}, "end_location": {"lat": 52.37524149999999, "lng": 4.883881}, "html_instructions": "Head <b>north</b> on <b>Prinsengracht</b> toward <b>Westermarkt</b><div style=\"font-size:0.9em\">Destination will be on the right</div>", "polyline": {"points": "ukt~Hexx\\YAEACAICEEMIc@a@i@c@AA"}, "start_location": {"lat": 52.374506, "lng": 4.883386199999999}, "travel_mode": "BICYCLING"}], "traffic_speed_entry": [], "via_waypoint": []}, {"distance": {"text": "1.5 km", "value": 1525}, "duration": {"text": "6 mins", "value": 381}, "end_address": "Begijnhof 30, 1012 WV Amsterdam, Netherlands", "end_location": {"lat": 52.3687657, "lng": 4.8900105}, "start_address": "Prinsengracht 267, 1016 GV Amsterdam, Netherlands", "start_location": {"lat": 52.37524149999999, "lng": 4.883881}, "steps": [{"distance": {"text": "0.1 km", "value": 96}, "duration": {"text": "1 min", "value": 19}, "end_location": {"lat": 52.375984, "lng": 4.884592}, "html_instructions": "Head <b>northeast</b> on <b>Prinsengracht</b> toward <b>Leliegracht</b>", "polyline": {"points": "gpt~Hg{x\\c@a@][o@m@OQQO"}, "start_location": {"lat": 52.37524149999999, "lng": 4.883881}, "travel_mode": "BICYCLING"}, {"distance": {"text": "36 m", "value": 36}, "duration": {"text": "1 min", "value": 7}, "end_location": {"lat": 52.3761396, "lng": 4.884128899999999}, "html_instructions": "Turn <b>left</b> onto <b>Leliegracht</b>", "maneuver": "turn-left", "polyline": {"points": "{tt~Hu_y\\EPMf@GTCJ"}, "start_location": {"lat": 52.375984, "lng": 4.884592}, "travel_mode": "BICYCLING"}, {"distance": {"text": "0.8 km", "value": 824}, "duration": {"text": "4 mins", "value": 256}, "end_location": {"lat": 52.3689463, "lng": 4.8823485}, "html_instructions": "Turn <b>left</b> onto <b>Prinsengracht</b>", "maneuver": "turn-left", "polyline": {"points": "{ut~Hy|x\\RRNN|@t@@BDDv@r@^ZVR@@PNJJFDFDDBB?B@J?b@BVBZ@@?n@AJHHCNBd@BL@B?B@x@FP?N@T@N?XBN@h@@L?T@v@BT@R@b@Dr@D|@DV@n@BD?`@?f@BZHHCxAFBAVBn@@D@p@B"}, "start_location": {"lat": 52.3761396, "lng": 4.884128899999999}, "travel_mode": "BICYCLING"}, {"distance": {"text": "0.2 km", "value": 150}, "duration": {"text": "1 min", "value": 28}, "end_location": {"lat": 52.3688659, "lng": 4.8845597}, "html_instructions": "Turn <b>left</b> onto <b>Runstraat</b>", "maneuver": "turn-left", "polyline": {"points": "}hs~Huqx\\@U?W@c@@U?WFeF@[?S?c@"}, "start_location": {"lat": 52.3689463, "lng": 4.8823485}, "travel_mode": "BICYCLING"}, {"distance": {"text": "0.1 km", "value": 149}, "duration": {"text": "1 min", "value": 25}, "end_location": {"lat": 52.3687895, "lng": 4.8867505}, "html_instructions": "Continue onto <b>Huidenstraat</b>", "polyline": {"points": "mhs~Ho_y\\@Q?O?A?SFoDB{C@Y?W"}, "start_location": {"lat": 52.3688659, "lng": 4.8845597}, "travel_mode": "BICYCLING"}, {"distance": {"text": "93 m", "value": 93}, "duration": {"text": "1 min", "value": 16}, "end_location": {"lat": 52.3687891, "lng": 4.8881147}, "html_instructions": "Continue onto <b>Wijde Heisteeg</b>", "polyline": {"points": "}gs~Hemy\\@[?YBgBCw@Ay@"}, "start_location": {"lat": 52.3687895, "lng": 4.8867505}, "travel_mode": "BICYCLING"}, {"distance": {"text": "77 m", "value": 77}, "duration": {"text": "1 min", "value": 13}, "end_location": {"lat": 52.3683062, "lng": 4.888870799999999}, "html_instructions": "Turn <b>right</b> onto <b>Singel</b>", "maneuver": "turn-right", "polyline": {"points": "}gs~Huuy\\@AB?@A@A@?t@eALQBGHQ@O?O"}, "start_location": {"lat": 52.3687891, "lng": 4.8881147}, "travel_mode": "BICYCLING"}, {"distance": {"text": "46 m", "value": 46}, "duration": {"text": "1 min", "value": 9}, "end_location": {"lat": 52.3686525, "lng": 4.8892452}, "html_instructions": "Turn <b>left</b> onto <b>Spui</b>", "maneuver": "turn-left", "polyline": {"points": "}ds~Hmzy\\ECIGKMMMS]EE"}, "start_location": {"lat": 52.3683062, "lng": 4.888870799999999}, "travel_mode": "BICYCLING"}, {"distance": {"text": "54 m", "value": 54}, "duration": {"text": "1 min", "value": 8}, "end_location": {"lat": 52.3687657, "lng": 4.8900105}, "html_instructions": "Turn <b>right</b> to stay on <b>Spui</b><div style=\"font-size:0.9em\">Destination will be on the left</div>", "maneuver": "turn-right", "polyline": {"points": "ags~Hy|y\\?WCYCKCMAMEe@CW"}, "start_location": {"lat": 52.3686525, "lng": 4.8892452}, "travel_mode": "BICYCLING"}], "traffic_speed_entry": [], "via_waypoint": []}, {"distance": {"text": "0.5 km", "value": 458}, "duration": {"text": "1 min", "value": 79}, "end_address": "Runstraat 2, 1016 GK Amsterdam, Netherlands", "end_location": {"lat": 52.3688811, "lng": 4.8839879}, "start_address": "Begijnhof 30, 1012 WV Amsterdam, Netherlands", "start_location": {"lat": 52.3687657, "lng": 4.8900105}, "steps": [{"distance": {"text": "54 m", "value": 54}, "duration": {"text": "1 min", "value": 9}, "end_location": {"lat": 52.3686525, "lng": 4.8892452}, "html_instructions": "Head <b>west</b> on <b>Spui</b> toward <b>Handboogstraat</b>", "polyline": {"points": "ygs~Hqaz\\BVDd@@LBLBJBX?V"}, "start_location": {"lat": 52.3687657, "lng": 4.8900105}, "travel_mode": "BICYCLING"}, {"distance": {"text": "46 m", "value": 46}, "duration": {"text": "1 min", "value": 8}, "end_location": {"lat": 52.3683062, "lng": 4.888870799999999}, "html_instructions": "Turn <b>left</b> to stay on <b>Spui</b>", "maneuver": "turn-left", "polyline": {"points": "ags~Hy|y\\DDR\\LLJLHFDB"}, "start_location": {"lat": 52.3686525, "lng": 4.8892452}, "travel_mode": "BICYCLING"}, {"distance": {"text": "77 m", "value": 77}, "duration": {"text": "1 min", "value": 14}, "end_location": {"lat": 52.3687891, "lng": 4.8881147}, "html_instructions": "Turn <b>right</b> onto <b>Singel</b>", "maneuver": "turn-right", "polyline": {"points": "}ds~Hmzy\\?NANIPCFMPu@dAA?A@A@C?A@"}, "start_location": {"lat": 52.3683062, "lng": 4.888870799999999}, "travel_mode": "BICYCLING"}, {"distance": {"text": "93 m", "value": 93}, "duration": {"text": "1 min", "value": 16}, "end_location": {"lat": 52.3687895, "lng": 4.8867505}, "html_instructions": "Turn <b>left</b> onto <b>Wijde Heisteeg</b>", "maneuver": "turn-left", "polyline": {"points": "}gs~Huuy\\@x@Bv@CfB?XAZ"}, "start_location": {"lat": 52.3687891, "lng": 4.8881147}, "travel_mode": "BICYCLING"}, {"distance": {"text": "0.1 km", "value": 149}, "duration": {"text": "1 min", "value": 26}, "end_location": {"lat": 52.3688659, "lng": 4.8845597}, "html_instructions": "Continue onto <b>Huidenstraat</b>", "polyline": {"points": "}gs~Hemy\\?VAXCzCGnD?R?@?NAP"}, "start_location": {"lat": 52.3687895, "lng": 4.8867505}, "travel_mode": "BICYCLING"}, {"distance": {"text": "39 m", "value": 39}, "duration": {"text": "1 min", "value": 6}, "end_location": {"lat": 52.3688811, "lng": 4.8839879}, "html_instructions": "Continue onto <b>Runstraat</b><div style=\"font-size:0.9em\">Destination will be on the right</div>", "polyline": {"points": "mhs~Ho_y\\?b@?RAZ?\\"}, "start_location": {"lat": 52.3688659, "lng": 4.8845597}, "travel_mode": "BICYCLING"}], "traffic_speed_entry": [], "via_waypoint": []}], "overview_polyline": {"points": "igt~Hagz\\SG_@Yc@_@y@q@}@w@g@g@i@s@wA}BEHCHb@n@v@pA`@f@~@z@dB~At@n@dAf@RDXHPFNNBR?n@I|DEbCG|A[bGGl@Md@i@lA[~@Mt@EfAExBCfCAdAEAw@CMAc@EOIq@k@mBcB_A_AQOEPU|@CJRRlAdAFHpBdBl@f@XDxAHn@AJHX?z@FjAFd@BbBFzAD`CNjCJhABZHHC|ADfADD@p@B@U?WBy@HmHNaMDuDEqBDAz@iAPYJa@?OECUUa@k@EE?WGe@E[I}@H|@L`A?VDD`@j@TTDB?NK`@QX{@hAE@DpBEtDMxJCtC"}, "summary": "Nieuwezijds Voorburgwal and Raadhuisstraat", "warnings": ["Bicycling directions are in beta. Use caution \u2013 This route may contain streets that aren't suited for bicycling."], "waypoint_order": [2, 1, 0]}], "status": "OK"}