{"geocoded_waypoints": [{"geocoder_status": "OK", "place_id": "ChIJDdlyk-4JxkcRWXtP_3s_vng", "types": ["street_address", "subpremise"]}, {"geocoder_status": "OK", "place_id": "EiRWb25kZWxwYXJrIDIsIEFtc3RlcmRhbSwgTmV0aGVybGFuZHMiGhIYChQKEgmRh6nq4gnGRxFc5deFLoIpphAC", "types": ["street_address"]}], "routes": [{"bounds": {"northeast": {"lat": 52.3637905, "lng": 4.886909999999999}, "southwest": {"lat": 52.35778879999999, "lng": 4.864783699999999}}, "copyrights": "Powered by Google, \u00a92026 Google", "legs": [{"arrival_time": {"text": "3:50\u202fPM", "time_zone": "Europe/Amsterdam", "value": 1767365408}, "departure_time": {"text": "3:34\u202fPM", "time_zone": "Europe/Amsterdam", "value": 1767364461}, "distance": {"text": "2.4 km", "value": 2367}, "duration": {"text": "16 mins", "value": 947}, "end_address": "Vondelpark 2, 1071 AA Amsterdam, Netherlands", "end_location": {"lat": 52.35780829999999, "lng": 4.868640099999999}, "start_address": "Museumpromenade 1, 1071 XX Amsterdam, Netherlands", "start_location": {"lat": 52.3599836, "lng": 4.8852312}, "steps": [{"distance": {"text": "0.2 km", "value": 186}, "duration": {"text": "3 mins", "value": 167}, "end_location": {"lat": 52.3610053, "lng": 4.8868354}, "html_instructions": "Walk to Rijksmuseum", "polyline": {"points": "{pq~Hucy\\c@o@Yg@SYSWHc@S[EIKVEE[e@QSEGCECACCCAKGDYBM"}, "start_location": {"lat": 52.3599836, "lng": 4.8852312}, "steps": [{"distance": {"text": "81 m", "value": 81}, "duration": {"text": "1 min", "value": 65}, "end_location": {"lat": 52.3604379, "lng": 4.8861048}, "html_instructions": "Head <b>northeast</b> on <b>Museumstraat</b>/<wbr/><b>Rijksmuseum Amsterdam - Passage</b> toward <b>Stadhouderskade</b>/<wbr/><b>S100</b><div style=\"font-size:0.9em\">Continue to follow Museumstraat</div>", "polyline": {"points": "{pq~Hucy\\c@o@Yg@SYSWHc@"}, "start_location": {"lat": 52.3599836, "lng": 4.8852312}, "travel_mode": "WALKING"}, {"distance": {"text": "86 m", "value": 86}, "duration": {"text": "1 min", "value": 87}, "end_location": {"lat": 52.3610619, "lng": 4.8866439}, "html_instructions": "Continue onto <b>Museumbrug</b>", "polyline": {"points": "wsq~Hciy\\S[EIKVEE[e@QSEGCECACCCAKG"}, "start_location": {"lat": 52.3604379, "lng": 4.8861048}, "travel_mode": "WALKING"}, {"distance": {"text": "19 m", "value": 19}, "duration": {"text": "1 min", "value": 15}, "end_location": {"lat": 52.3610053, "lng": 4.8868354}, "html_instructions": "Turn <b>right</b> onto <b>Weteringschans</b>", "maneuver": "turn-right", "polyline": {"points": "swq~Holy\\DYBM"}, "start_location": {"lat": 52.3610619, "lng": 4.8866439}, "travel_mode": "WALKING"}], "travel_mode": "WALKING"}, {"distance": {"text": "1.7 km", "value": 1702}, "duration": {"text": "7 mins", "value": 398}, "end_location": {"lat": 52.360467, "lng": 4.8661072}, "html_instructions": "Tram towards Osdorp De Aker", "polyline": {"points": "uwq~Heny\\FFCJGPGNEHIPELEHKVi@zAu@pBeApCu@pBIPEHCFCFEDEBCDGBEBEDGBC@MDg@PIDQJ_@RA@A@EBEDEDi@t@ABCDCDADAF?DAFAH?LCTDLXv@@D@FBJN`@f@vAHPL`@BD?@Rd@FRBFBD@FBF@F@F@F@F?H?J?H?HALAJCDADEFeAzAc@z@Up@AHEL?JALAH?H@H@L@JBNt@jDd@zBf@fC\\nBPt@@HDXDb@b@fCF`@\\jBLv@lEzWBHl@lDXnBBJXrBJr@DZ\\lCE@"}, "start_location": {"lat": 52.36107, "lng": 4.886909999999999}, "transit_details": {"arrival_stop": {"location": {"lat": 52.360467, "lng": 4.8661072}, "name": "J.P. Heijestraat"}, "arrival_time": {"text": "3:43\u202fPM", "time_zone": "Europe/Amsterdam", "value": 1767365029}, "departure_stop": {"location": {"lat": 52.36107, "lng": 4.886909999999999}, "name": "Rijksmuseum"}, "departure_time": {"text": "3:37\u202fPM", "time_zone": "Europe/Amsterdam", "value": 1767364631}, "headsign": "Osdorp De Aker", "line": {"agencies": [{"name": "GVB", "phone": "011 31 900 8011", "url": "http://www.gvb.nl/"}], "color": "#f05936", "name": "Lijn 1", "short_name": "1", "text_color": "#ffffff", "url": "http://www.gvb.nl/lijn/tram/1", "vehicle": {"icon": "//maps.gstatic.com/mapfiles/transit/iw2/6/tram2.png", "name": "Tram", "type": "TRAM"}}, "num_stops": 3}, "travel_mode": "TRANSIT"}, {"distance": {"text": "0.5 km", "value": 479}, "duration": {"text": "6 mins", "value": 379}, "end_location": {"lat": 52.35780829999999, "lng": 4.868640099999999}, "html_instructions": "Walk to Vondelpark 2, 1071 AA Amsterdam, Netherlands", "polyline": {"points": "grq~Hoju\\Ff@@h@BPTj@?DDZF`@h@[b@Sj@[l@a@LM\\Q\\MAS@K@KBOBQNe@R_@Xk@Te@Pa@J]Tq@DSBQBO?A?S?SAYDKBKDWDe@BQDUCW"}, "start_location": {"lat": 52.3602004, "lng": 4.8658385}, "steps": [{"distance": {"text": "77 m", "value": 77}, "duration": {"text": "1 min", "value": 61}, "end_location": {"lat": 52.3599543, "lng": 4.864783699999999}, "html_instructions": "Head <b>west</b> on <b>Overtoom</b>/<wbr/><b>S106</b> toward <b>Jan Pieter Heijestraat</b>", "polyline": {"points": "grq~Hoju\\Ff@@h@BPTj@?DDZF`@"}, "start_location": {"lat": 52.3602004, "lng": 4.8658385}, "travel_mode": "WALKING"}, {"distance": {"text": "0.2 km", "value": 158}, "duration": {"text": "2 mins", "value": 122}, "end_location": {"lat": 52.35873729999999, "lng": 4.8655618}, "html_instructions": "Turn <b>left</b> onto <b>Kattenlaan</b>", "maneuver": "turn-left", "polyline": {"points": "upq~H{cu\\h@[b@Sj@[l@a@LM\\Q\\M"}, "start_location": {"lat": 52.3599543, "lng": 4.864783699999999}, "travel_mode": "WALKING"}, {"distance": {"text": "0.2 km", "value": 244}, "duration": {"text": "3 mins", "value": 196}, "end_location": {"lat": 52.35780829999999, "lng": 4.868640099999999}, "html_instructions": "Turn <b>left</b> onto <b>Vondelpark</b><div style=\"font-size:0.9em\">Destination will be on the left</div>", "maneuver": "turn-left", "polyline": {"points": "ciq~Hwhu\\AS@K@KBOBQNe@R_@Xk@Te@Pa@J]Tq@DSBQBO?A?S?SAYDKBKDWDe@BQDUCW"}, "start_location": {"lat": 52.35873729999999, "lng": 4.8655618}, "travel_mode": "WALKING"}], "travel_mode": "WALKING"}], "traffic_speed_entry": [], "via_waypoint": []}], "overview_polyline": {"points": "{pq~Hucy\\eBiCHc@S[EIKVa@k@W[OMKGDYBMKMFFCJO`@Uh@qBnFkC~GSXWRaA\\}@f@SPs@dAEZAVCTDLZ|@DRnAlD^`AL\\F^?h@Id@kAbBc@z@Up@GVAX?\\|@tElAbGn@dDp@nE`G`^nArHhApIE@t@t@Ff@Dz@Tp@L|@lAo@xA}@j@_@\\MASBWFa@b@eAn@qA\\_AZeAFa@AcAHWJ}@Hg@CW"}, "summary": "", "warnings": ["Walking directions are in beta. Use caution \u2013 This route may be missing sidewalks or pedestrian paths."], "waypoint_order": []}], "status": "OK"}