{"geocoded_waypoints": [{"geocoder_status": "OK", "place_id": "ChIJuSeSfI0JxkcR0Fs3UVRYIJ0", "types": ["premise", "street_address"]}, {"geocoder_status": "OK", "place_id": "ChIJAYMZPu0JxkcRX-9YXVZZPGw", "types": ["premise", "street_address"]}, {"geocoder_status": "OK", "place_id": "ChIJDdlyk-4JxkcRWXtP_3s_vng", "types": ["street_address", "subpremise"]}], "routes": [{"bounds": {"northeast": {"lat": 52.3605179, "lng": 4.8950803}, "southwest": {"lat": 52.3554955, "lng": 4.8852312}}, "copyrights": "Powered by Google, \u00a92026 Google", "legs": [{"distance": {"text": "0.5 km", "value": 534}, "duration": {"text": "7 mins", "value": 434}, "end_address": "Stadhouderskade 78, 1072 AE Amsterdam, Netherlands", "end_location": {"lat": 52.357914, "lng": 4.8915398}, "start_address": "Albert Cuypstraat 182, 1073 BL Amsterdam, Netherlands", "start_location": {"lat": 52.3558996, "lng": 4.8950803}, "steps": [{"distance": {"text": "0.1 km", "value": 139}, "duration": {"text": "2 mins", "value": 111}, "end_location": {"lat": 52.3555019, "lng": 4.8931436}, "html_instructions": "Head <b>west</b> on <b>Albert Cuypstraat</b> toward <b>Eerste van der Helststraat</b><div style=\"font-size:0.9em\">Closed Mon\u2013Fri 6:30\u202fAM\u2009\u2013\u200910:00\u202fPM</div>", "polyline": {"points": "kwp~Hga{\\Lx@BVL`AVvBLz@BZD^"}, "start_location": {"lat": 52.3558996, "lng": 4.8950803}, "travel_mode": "WALKING"}, {"distance": {"text": "2 m", "value": 2}, "duration": {"text": "1 min", "value": 2}, "end_location": {"lat": 52.3554955, "lng": 4.8931137}, "html_instructions": "Continue straight onto <b>Eerste van der Helststraat</b><div style=\"font-size:0.9em\">Closed Mon\u2013Fri 6:30\u202fAM\u2009\u2013\u200910:00\u202fPM</div>", "maneuver": "straight", "polyline": {"points": "{tp~Hcuz\\?D"}, "start_location": {"lat": 52.3555019, "lng": 4.8931436}, "travel_mode": "WALKING"}, {"distance": {"text": "49 m", "value": 49}, "duration": {"text": "1 min", "value": 39}, "end_location": {"lat": 52.35588370000001, "lng": 4.8929225}, "html_instructions": "Turn <b>right</b> to stay on <b>Eerste van der Helststraat</b>", "maneuver": "turn-right", "polyline": {"points": "{tp~H}tz\\KDKDWH?@[L"}, "start_location": {"lat": 52.3554955, "lng": 4.8931137}, "travel_mode": "WALKING"}, {"distance": {"text": "27 m", "value": 27}, "duration": {"text": "1 min", "value": 22}, "end_location": {"lat": 52.3558357, "lng": 4.8925694}, "html_instructions": "Turn <b>left</b> onto <b>Eerste van der Helststraat</b>/<wbr/><b>Gerard Douplein</b>/<wbr/><b>Gerard Doustraat</b>", "maneuver": "turn-left", "polyline": {"points": "gwp~Hwsz\\Fv@?L"}, "start_location": {"lat": 52.35588370000001, "lng": 4.8929225}, "travel_mode": "WALKING"}, {"distance": {"text": "21 m", "value": 21}, "duration": {"text": "1 min", "value": 19}, "end_location": {"lat": 52.35613859999999, "lng": 4.892527299999999}, "html_instructions": "Turn <b>right</b> onto <b>Gerard Douplein</b>", "maneuver": "turn-right", "polyline": {"points": "_wp~Hqqz\\KBQGA?UGER"}, "start_location": {"lat": 52.3558357, "lng": 4.8925694}, "travel_mode": "WALKING"}, {"distance": {"text": "0.2 km", "value": 208}, "duration": {"text": "3 mins", "value": 170}, "end_location": {"lat": 52.3578863, "lng": 4.8927577}, "html_instructions": "Continue onto <b>Eerste van der Helststraat</b>", "polyline": {"points": "{xp~Hiqz\\eBOODaBMQEaBMM?CA"}, "start_location": {"lat": 52.35613859999999, "lng": 4.892527299999999}, "travel_mode": "WALKING"}, {"distance": {"text": "88 m", "value": 88}, "duration": {"text": "1 min", "value": 71}, "end_location": {"lat": 52.357914, "lng": 4.8915398}, "html_instructions": "Turn <b>left</b> onto <b>Stadhouderskade</b>/<wbr/><b>S100</b>", "maneuver": "turn-left", "polyline": {"points": "ycq~Hwrz\\Cn@?\\Aj@?Z@p@?j@"}, "start_location": {"lat": 52.3578863, "lng": 4.8927577}, "travel_mode": "WALKING"}], "traffic_speed_entry": [], "via_waypoint": []}, {"distance": {"text": "0.6 km", "value": 569}, "duration": {"text": "8 mins", "value": 472}, "end_address": "Museumpromenade 1, 1071 XX Amsterdam, Netherlands", "end_location": {"lat": 52.3599836, "lng": 4.8852312}, "start_address": "Stadhouderskade 78, 1072 AE Amsterdam, Netherlands", "start_location": {"lat": 52.3579308, "lng": 4.8915334}, "steps": [{"distance": {"text": "0.5 km", "value": 488}, "duration": {"text": "7 mins", "value": 407}, "end_location": {"lat": 52.3605179, "lng": 4.885951899999999}, "html_instructions": "Head <b>west</b> on <b>Stadhouderskade</b>/<wbr/><b>S100</b> toward <b>Ferdinand Bolstraat</b>", "polyline": {"points": "adq~Hakz\\?B@DCp@?VA^?B?@A\\?BC?CTAJAHGh@In@CPETI^CLGXCLKTCDGXEJCFEPEFMXKTGLOXEHILMRKJm@n@OPMPSRMJW^CBOVSf@IPWh@DFCFMXIKEJMZa@~@Wl@"}, "start_location": {"lat": 52.3579308, "lng": 4.8915334}, "travel_mode": "WALKING"}, {"distance": {"text": "81 m", "value": 81}, "duration": {"text": "1 min", "value": 65}, "end_location": {"lat": 52.3599836, "lng": 4.8852312}, "html_instructions": "Turn <b>left</b> onto <b>Museumstraat</b><div style=\"font-size:0.9em\">Destination will be on the right</div>", "maneuver": "turn-left", "polyline": {"points": "gtq~Hehy\\DDRVRXXf@b@n@"}, "start_location": {"lat": 52.3605179, "lng": 4.885951899999999}, "travel_mode": "WALKING"}], "traffic_speed_entry": [], "via_waypoint": []}], "overview_polyline": {"points": "kwp~Hga{\\v@jGV|Bo@V[LFv@?LKBSGUGEReBOODaBMQEoBMCACn@AhA@lA?j@C@@HElB?@A`@C?CTCT[`CYtA]`A]z@i@fAW`@y@z@_AbA[b@c@~@a@z@DFCFMXIKSf@y@lBX\\pApB"}, "summary": "Albert Cuypstraat and Eerste van der Helststraat", "warnings": ["Walking directions are in beta. Use caution \u2013 This route may be missing sidewalks or pedestrian paths."], "waypoint_order": [0]}], "status": "OK"}