{"geocoded_waypoints": [{"geocoder_status": "OK", "place_id": "ChIJuUIe1_mipBIRvxFsLzykv9U", "types": ["establishment", "food", "point_of_interest", "restaurant"]}, {"geocoder_status": "OK", "place_id": "ChIJKShJEr2ipBIRnagjkHJzfH4", "types": ["street_address", "subpremise"]}], "routes": [{"bounds": {"northeast": {"lat": 41.4039028, "lng": 2.17303}, "southwest": {"lat": 41.3815169, "lng": 2.1526519}}, "copyrights": "Powered by Google, \u00a92026 Google", "legs": [{"arrival_time": {"text": "3:44\u202fPM", "time_zone": "Europe/Madrid", "value": 1767365042}, "departure_time": {"text": "3:27\u202fPM", "time_zone": "Europe/Madrid", "value": 1767364046}, "distance": {"text": "3.6 km", "value": 3613}, "duration": {"text": "17 mins", "value": 996}, "end_address": "Carrer del Torrent de l'Olla, 117, Gr\u00e0cia, 08012 Barcelona, Spain", "end_location": {"lat": 41.4025932, "lng": 2.1566489}, "start_address": "Mercado de La Boqueria, La Rambla, 91, Ciutat Vella, 08001 Barcelona, Spain", "start_location": {"lat": 41.3815243, "lng": 2.1719657}, "steps": [{"distance": {"text": "0.2 km", "value": 178}, "duration": {"text": "3 mins", "value": 169}, "end_location": {"lat": 41.381546, "lng": 2.17303}, "html_instructions": "Walk to Liceu", "polyline": {"points": "oiq{FyegLCEACAC?ASg@CI?AA??AA?A@OLc@^Uu@DEAEHGAC|AoB"}, "start_location": {"lat": 41.3815243, "lng": 2.1719657}, "steps": [{"distance": {"text": "71 m", "value": 71}, "duration": {"text": "1 min", "value": 57}, "end_location": {"lat": 41.38196569999999, "lng": 2.17208}, "html_instructions": "Head <b>northeast</b> on <b>Pl. de Sant Josep</b> toward <b>Carrer de les Cabres</b>", "polyline": {"points": "oiq{FyegLCEACAC?ASg@CI?AA??AA?A@OLc@^"}, "start_location": {"lat": 41.3815243, "lng": 2.1719657}, "travel_mode": "WALKING"}, {"distance": {"text": "26 m", "value": 26}, "duration": {"text": "1 min", "value": 21}, "end_location": {"lat": 41.3820622, "lng": 2.1724087}, "html_instructions": "Turn <b>right</b> toward <b>La Rambla</b>/<wbr/><b>Rambla de Sant Josep</b>", "maneuver": "turn-right", "polyline": {"points": "ilq{FofgLUu@DEAE"}, "start_location": {"lat": 41.38196569999999, "lng": 2.17208}, "travel_mode": "WALKING"}, {"distance": {"text": "11 m", "value": 11}, "duration": {"text": "1 min", "value": 11}, "end_location": {"lat": 41.3820107, "lng": 2.1724511}, "html_instructions": "Turn <b>right</b> onto <b>La Rambla</b>/<wbr/><b>Rambla de Sant Josep</b><div style=\"font-size:0.9em\">Destination will be on the left</div>", "maneuver": "turn-right", "polyline": {"points": "{lq{FqhgLHG"}, "start_location": {"lat": 41.3820622, "lng": 2.1724087}, "travel_mode": "WALKING"}, {"distance": {"text": "70 m", "value": 70}, "duration": {"text": "1 min", "value": 80}, "end_location": {"lat": 41.381546, "lng": 2.17303}, "html_instructions": "Take entrance <span class=\"location\">La Rambla / Mercat de la Boqueria</span>", "polyline": {"points": "slq{F}hgL|AoB"}, "start_location": {"lat": 41.382019, "lng": 2.172469}, "travel_mode": "WALKING"}], "travel_mode": "WALKING"}, {"distance": {"text": "2.9 km", "value": 2897}, "duration": {"text": "6 mins", "value": 382}, "end_location": {"lat": 41.402107, "lng": 2.153022}, "html_instructions": "Subway towards Trinitat Nova", "polyline": {"points": "uiq{FmlgLDJ_F`EYTg@\\WLaK~FOHUL]J_@HOBUB[@}ABiCBA?]B_@D_@HODC@]LYNOJ_@VMLON[\\ED}FxHmBfCmGlIILy@dAWZY^cErFuL~OiB~BILs@~@iGhIs@z@QT[ZkAdAQPc@d@_HrIuGdIWX[Zq@h@MJEK"}, "start_location": {"lat": 41.381546, "lng": 2.17303}, "transit_details": {"arrival_stop": {"location": {"lat": 41.402107, "lng": 2.153022}, "name": "Fontana"}, "arrival_time": {"text": "3:36\u202fPM", "time_zone": "Europe/Madrid", "value": 1767364606}, "departure_stop": {"location": {"lat": 41.381546, "lng": 2.17303}, "name": "Liceu"}, "departure_time": {"text": "3:30\u202fPM", "time_zone": "Europe/Madrid", "value": 1767364224}, "headsign": "Trinitat Nova", "line": {"agencies": [{"name": "Transports Metropolitans de Barcelona", "phone": "011 34 900 701 149", "url": "http://www.tmb.cat/"}], "color": "#31b44a", "name": "Zona Universit\u00e0ria - Trinitat Nova", "short_name": "L3", "text_color": "#ffffff", "url": "https://www.tmb.cat/ca/barcelona/metro/-/lineametro/L3", "vehicle": {"icon": "//maps.gstatic.com/mapfiles/transit/iw2/6/subway2.png", "local_icon": "//maps.gstatic.com/mapfiles/transit/iw2/6/es-barcelona-metro.png", "name": "Subway", "type": "SUBWAY"}}, "num_stops": 4}, "travel_mode": "TRANSIT"}, {"distance": {"text": "0.5 km", "value": 538}, "duration": {"text": "7 mins", "value": 435}, "end_location": {"lat": 41.4025932, "lng": 2.1566489}, "html_instructions": "Walk to Carrer del Torrent de l'Olla, 117, Gr\u00e0cia, 08012 Barcelona, Spain", "polyline": {"points": "eju{FkocL}AbA?DHEJCGMg@iAUi@e@iA@O_AcBKK]q@_@s@i@eAr@w@JId@i@FEzAcBDEACv@}@"}, "start_location": {"lat": 41.402107, "lng": 2.153022}, "steps": [{"distance": {"text": "60 m", "value": 60}, "duration": {"text": "1 min", "value": 63}, "end_location": {"lat": 41.402584, "lng": 2.152678}, "html_instructions": "Take exit <span class=\"location\">Gran de Gr\u00e0cia / Ast\u00faries</span>", "polyline": {"points": "eju{FkocL}AbA"}, "start_location": {"lat": 41.402107, "lng": 2.153022}, "travel_mode": "WALKING"}, {"distance": {"text": "14 m", "value": 14}, "duration": {"text": "1 min", "value": 10}, "end_location": {"lat": 41.4024704, "lng": 2.1527}, "html_instructions": "Head <b>south</b> on <b>Carrer Gran de Gr\u00e0cia</b> toward <b>Carrer d'Ast\u00faries</b>", "polyline": {"points": "cmu{FamcLHEJC"}, "start_location": {"lat": 41.402576, "lng": 2.1526519}, "travel_mode": "WALKING"}, {"distance": {"text": "0.3 km", "value": 272}, "duration": {"text": "4 mins", "value": 221}, "end_location": {"lat": 41.4039028, "lng": 2.1552162}, "html_instructions": "Turn <b>left</b> onto <b>Carrer d'Ast\u00faries</b>", "maneuver": "turn-left", "polyline": {"points": "mlu{FkmcLGMg@iAUi@e@iA@O_AcBKK]q@_@s@i@eA"}, "start_location": {"lat": 41.4024704, "lng": 2.1527}, "travel_mode": "WALKING"}, {"distance": {"text": "0.2 km", "value": 192}, "duration": {"text": "2 mins", "value": 141}, "end_location": {"lat": 41.4025932, "lng": 2.1566489}, "html_instructions": "Turn <b>right</b> onto <b>Carrer del Torrent de l'Olla</b><div style=\"font-size:0.9em\">Destination will be on the right</div>", "maneuver": "turn-right", "polyline": {"points": "kuu{Fc}cLr@w@JId@i@FEzAcBDEACv@}@"}, "start_location": {"lat": 41.4039028, "lng": 2.1552162}, "travel_mode": "WALKING"}], "travel_mode": "WALKING"}], "traffic_speed_entry": [], "via_waypoint": []}], "overview_polyline": {"points": "oiq{FyegLa@cASLc@^Uu@DEAEHGAC|AoBDJyFvE_Aj@qKhGs@Xo@Lq@DgGJ_ANSFw@\\o@b@_A`As\\rc@}QlV}HdKm@p@}AvAcIxJmH~ImAdAMJEK}AbA?DTIo@wA{@sB@O_AcBi@}@iAyB~@aAl@o@zAcBDEACv@}@"}, "summary": "", "warnings": ["Walking directions are in beta. Use caution \u2013 This route may be missing sidewalks or pedestrian paths."], "waypoint_order": []}], "status": "OK"}