{"geocoded_waypoints": [{"geocoder_status": "OK", "place_id": "ChIJqb_gI99RqEcRd_hhk7Ccn70", "types": ["street_address", "subpremise"]}, {"geocoder_status": "OK", "place_id": "ChIJg2E7WcZRqEcRUABymSfUJh0", "types": ["cafe", "establishment", "food", "point_of_interest"]}, {"geocoder_status": "OK", "place_id": "ChIJ1THk591RqEcRgVckprqeFQs", "types": ["street_address", "subpremise"]}, {"geocoder_status": "OK", "place_id": "ChIJS4MKBSBOqEcRMVSPqUYFOJ0", "types": ["establishment", "museum", "point_of_interest", "tourist_attraction"]}], "routes": [{"bounds": {"northeast": {"lat": 52.5220926, "lng": 13.4024855}, "southwest": {"lat": 52.515593, "lng": 13.3916421}}, "copyrights": "Powered by Google, \u00a92026 Google", "legs": [{"distance": {"text": "0.8 km", "value": 833}, "duration": {"text": "3 mins", "value": 162}, "end_address": "Berliner Dom, Am Lustgarten 1, 10178 Berlin, Germany", "end_location": {"lat": 52.5188511, "lng": 13.4004511}, "start_address": "Schlo\u00dfpl. 1, 10178 Berlin, Germany", "start_location": {"lat": 52.51645019999999, "lng": 13.4024855}, "steps": [{"distance": {"text": "0.2 km", "value": 219}, "duration": {"text": "1 min", "value": 39}, "end_location": {"lat": 52.51588839999999, "lng": 13.3999445}, "html_instructions": "Head <b>southwest</b> on <b>Schlo\u00dfpl.</b>", "polyline": {"points": "ybp_IqtxpA`@bAVx@j@hBBHAF?BA@i@p@EDCDABAD?BAF@H@D@DBFh@zABF@FH^"}, "start_location": {"lat": 52.51645019999999, "lng": 13.4024855}, "travel_mode": "DRIVING"}, {"distance": {"text": "88 m", "value": 88}, "duration": {"text": "1 min", "value": 14}, "end_location": {"lat": 52.515593, "lng": 13.3987344}, "html_instructions": "Continue onto <b>Werderscher Markt</b>", "polyline": {"points": "i_p_IsdxpAF`@Hb@DLBV^dC"}, "start_location": {"lat": 52.51588839999999, "lng": 13.3999445}, "travel_mode": "DRIVING"}, {"distance": {"text": "0.2 km", "value": 224}, "duration": {"text": "1 min", "value": 49}, "end_location": {"lat": 52.5175433, "lng": 13.3980531}, "html_instructions": "Turn <b>right</b> onto <b>Schinkelpl.</b>", "maneuver": "turn-right", "polyline": {"points": "m}o_Ia}wpAu@^EDGBGDKDK@K@iAFmALc@Fc@DC?A@KDc@`@"}, "start_location": {"lat": 52.515593, "lng": 13.3987344}, "travel_mode": "DRIVING"}, {"distance": {"text": "0.2 km", "value": 223}, "duration": {"text": "1 min", "value": 32}, "end_location": {"lat": 52.51825179999999, "lng": 13.401077}, "html_instructions": "Turn <b>right</b> onto <b>Schlo\u00dfbr\u00fccke</b>/<wbr/><b>Schlo\u00dfpl.</b>/<wbr/><b>B2</b>/<wbr/><b>B5</b><div style=\"font-size:0.9em\">Continue to follow Schlo\u00dfpl./<wbr/>B2/<wbr/>B5</div>", "maneuver": "turn-right", "polyline": {"points": "sip_IyxwpAA_@CcAEiAGw@CWCYCSEWIYGYIY_@uAk@uB"}, "start_location": {"lat": 52.5175433, "lng": 13.3980531}, "travel_mode": "DRIVING"}, {"distance": {"text": "79 m", "value": 79}, "duration": {"text": "1 min", "value": 28}, "end_location": {"lat": 52.5188511, "lng": 13.4004511}, "html_instructions": "Turn <b>left</b> onto <b>Am Lustgarten</b><div style=\"font-size:0.9em\">Destination will be on the right</div>", "maneuver": "turn-left", "polyline": {"points": "anp_IwkxpAONg@j@GFe@d@QR"}, "start_location": {"lat": 52.51825179999999, "lng": 13.401077}, "travel_mode": "DRIVING"}], "traffic_speed_entry": [], "via_waypoint": []}, {"distance": {"text": "0.2 km", "value": 205}, "duration": {"text": "1 min", "value": 44}, "end_address": "Bodestra\u00dfe 1, 10178 Berlin, Germany", "end_location": {"lat": 52.5198282, "lng": 13.3986435}, "start_address": "Berliner Dom, Am Lustgarten 1, 10178 Berlin, Germany", "start_location": {"lat": 52.5188511, "lng": 13.4004511}, "steps": [{"distance": {"text": "0.2 km", "value": 159}, "duration": {"text": "1 min", "value": 35}, "end_location": {"lat": 52.5200646, "lng": 13.3992038}, "html_instructions": "Head <b>northwest</b> on <b>Am Lustgarten</b>", "polyline": {"points": "yqp_IygxpAEDo@p@WXKJIHWV_A`ASRKJUV"}, "start_location": {"lat": 52.5188511, "lng": 13.4004511}, "travel_mode": "DRIVING"}, {"distance": {"text": "46 m", "value": 46}, "duration": {"text": "1 min", "value": 9}, "end_location": {"lat": 52.5198282, "lng": 13.3986435}, "html_instructions": "Turn <b>left</b> onto <b>Bodestra\u00dfe</b>", "maneuver": "turn-left", "polyline": {"points": "kyp_I_`xpANd@Tt@FR"}, "start_location": {"lat": 52.5200646, "lng": 13.3992038}, "travel_mode": "DRIVING"}], "traffic_speed_entry": [], "via_waypoint": []}, {"distance": {"text": "1.5 km", "value": 1488}, "duration": {"text": "4 mins", "value": 265}, "end_address": "Bodestra\u00dfe 1-3, 10178 Berlin, Germany", "end_location": {"lat": 52.5215826, "lng": 13.3957689}, "start_address": "Bodestra\u00dfe 1, 10178 Berlin, Germany", "start_location": {"lat": 52.5198282, "lng": 13.3986435}, "steps": [{"distance": {"text": "0.1 km", "value": 116}, "duration": {"text": "1 min", "value": 22}, "end_location": {"lat": 52.5192852, "lng": 13.3971888}, "html_instructions": "Head <b>southwest</b> on <b>Bodestra\u00dfe</b> toward <b>Am Kupfergraben</b>", "polyline": {"points": "}wp_Io|wpAb@xAL`@L\\Nj@DPDPH`@?@DR"}, "start_location": {"lat": 52.5198282, "lng": 13.3986435}, "travel_mode": "DRIVING"}, {"distance": {"text": "0.2 km", "value": 238}, "duration": {"text": "1 min", "value": 49}, "end_location": {"lat": 52.5175379, "lng": 13.3962665}, "html_instructions": "Continue onto <b>Hinter dem Gie\u00dfhaus</b>", "polyline": {"points": "qtp_ImswpARx@J\\p@|B@D@BB@@@@@@?F?v@IHAnCYb@G"}, "start_location": {"lat": 52.5192852, "lng": 13.3971888}, "travel_mode": "DRIVING"}, {"distance": {"text": "0.3 km", "value": 251}, "duration": {"text": "1 min", "value": 42}, "end_location": {"lat": 52.5173873, "lng": 13.3925757}, "html_instructions": "Turn <b>right</b> onto <b>Unter den Linden</b>/<wbr/><b>B2</b>", "maneuver": "turn-right", "polyline": {"points": "sip_IumwpAFzB@RDrA@\\FtBBpADx@?R@L?J?H?F?D?F?FAD?FAJAF?DAB?D?D?HAH@H?L?b@"}, "start_location": {"lat": 52.5175379, "lng": 13.3962665}, "travel_mode": "DRIVING"}, {"distance": {"text": "0.3 km", "value": 307}, "duration": {"text": "1 min", "value": 53}, "end_location": {"lat": 52.5200714, "lng": 13.3920001}, "html_instructions": "Turn <b>right</b> onto <b>Universit\u00e4tsstra\u00dfe</b>", "maneuver": "turn-right", "polyline": {"points": "uhp_IsvvpAQBi@DcDZiBRQ@?RcBP}@LYB"}, "start_location": {"lat": 52.5173873, "lng": 13.3925757}, "travel_mode": "DRIVING"}, {"distance": {"text": "0.2 km", "value": 226}, "duration": {"text": "1 min", "value": 34}, "end_location": {"lat": 52.5220926, "lng": 13.3916511}, "html_instructions": "Continue onto <b>Geschwister-Scholl-Stra\u00dfe</b>", "polyline": {"points": "myp_I_svpAm@HA@s@Hi@FC?w@Dy@No@Fc@DA?WDO?QA"}, "start_location": {"lat": 52.5200714, "lng": 13.3920001}, "travel_mode": "DRIVING"}, {"distance": {"text": "0.2 km", "value": 242}, "duration": {"text": "1 min", "value": 58}, "end_location": {"lat": 52.52098119999999, "lng": 13.3945164}, "html_instructions": "Turn <b>right</b> onto <b>Am Kupfergraben</b>", "maneuver": "turn-right", "polyline": {"points": "afq_IypvpA@c@@W?A?O@U?O@Q@K?C@UF_@D[F_@F_@DQBMBIBGBCfC_EJQHM"}, "start_location": {"lat": 52.5220926, "lng": 13.3916511}, "travel_mode": "DRIVING"}, {"distance": {"text": "0.1 km", "value": 108}, "duration": {"text": "1 min", "value": 7}, "end_location": {"lat": 52.5215826, "lng": 13.3957689}, "html_instructions": "Turn <b>left</b><div style=\"font-size:0.9em\">Restricted usage road</div>", "maneuver": "turn-left", "polyline": {"points": "c_q_IwbwpAIS[{@qAiD"}, "start_location": {"lat": 52.52098119999999, "lng": 13.3945164}, "travel_mode": "DRIVING"}], "traffic_speed_entry": [], "via_waypoint": []}], "overview_polyline": {"points": "ybp_IqtxpAx@|Bn@rBAJk@r@MT?B?Pp@nBVpANp@b@|CkAn@WFuAHuCZE@KDc@`@EcBMaCQ}A{@cDk@uBONo@r@mBpB{D`EpAhEZ~@T|@ThArAzEHHH?`AKrDa@HnCRxHF~BGz@A^@V?b@QBmE`@{BT?RcBPwAPmC\\{@DiBVmAJQA@c@@YBgABe@\\{BPq@`DcFwByF"}, "summary": "Schlo\u00dfpl., Schinkelpl. and B2", "warnings": [], "waypoint_order": [1, 0]}], "status": "OK"}