{"geocoded_waypoints": [{"geocoder_status": "OK", "place_id": "ChIJ65nY9-hPqEcRi3G7rJmOiYg", "types": ["establishment", "park", "point_of_interest", "tourist_attraction"]}, {"geocoder_status": "OK", "place_id": "ChIJETEmGLtPqEcROhdX6hF2LLg", "types": ["street_address", "subpremise"]}, {"geocoder_status": "OK", "place_id": "ChIJIzUO1JhPqEcR-1G7SSjGxM0", "types": ["street_address", "subpremise"]}], "routes": [{"bounds": {"northeast": {"lat": 52.4825948, "lng": 13.4404035}, "southwest": {"lat": 52.4719908, "lng": 13.4014263}}, "copyrights": "Powered by Google, \u00a92026 Google", "legs": [{"distance": {"text": "2.6 km", "value": 2574}, "duration": {"text": "35 mins", "value": 2077}, "end_address": "Karl-Marx-Stra\u00dfe 66, 12043 Berlin, Germany", "end_location": {"lat": 52.4825948, "lng": 13.4322734}, "start_address": "Tempelhofer Feld, Tempelhofer Damm, 12101 Berlin, Germany", "start_location": {"lat": 52.4801076, "lng": 13.4014263}, "steps": [{"distance": {"text": "0.3 km", "value": 292}, "duration": {"text": "4 mins", "value": 242}, "end_location": {"lat": 52.481616, "lng": 13.4048825}, "html_instructions": "Head <b>northeast</b><div style=\"font-size:0.9em\">Restricted usage road</div>", "polyline": {"points": "u_i_I}mxpAQ]CQIYUq@YgAO{@UkAUeAQc@Oc@w@yBUc@[e@US"}, "start_location": {"lat": 52.4801076, "lng": 13.4014263}, "travel_mode": "WALKING"}, {"distance": {"text": "0.1 km", "value": 136}, "duration": {"text": "2 mins", "value": 108}, "end_location": {"lat": 52.4810253, "lng": 13.4066341}, "html_instructions": "Turn <b>right</b><div style=\"font-size:0.9em\">Restricted usage road</div>", "maneuver": "turn-right", "polyline": {"points": "cii_IocypAVeAh@}B`@gBPq@"}, "start_location": {"lat": 52.481616, "lng": 13.4048825}, "travel_mode": "WALKING"}, {"distance": {"text": "0.2 km", "value": 163}, "duration": {"text": "2 mins", "value": 128}, "end_location": {"lat": 52.4823309, "lng": 13.4072718}, "html_instructions": "Turn <b>left</b> toward <b>Columbiadamm</b><div style=\"font-size:0.9em\">Restricted usage road</div>", "maneuver": "turn-left", "polyline": {"points": "mei_ImnypAEIIIUK}DqA_@M"}, "start_location": {"lat": 52.4810253, "lng": 13.4066341}, "travel_mode": "WALKING"}, {"distance": {"text": "0.9 km", "value": 855}, "duration": {"text": "12 mins", "value": 708}, "end_location": {"lat": 52.480192, "lng": 13.4192281}, "html_instructions": "Turn <b>right</b> onto <b>Columbiadamm</b>", "maneuver": "turn-right", "polyline": {"points": "qmi_ImrypAD[L_ANy@LcALq@@MDWL_AFk@He@@IFc@Ho@LaAFc@D_@h@aEFa@XuBDa@f@uDF_@`@}CJw@BUD_@Di@@k@Fe@LGKEYOGAHi@L_A`@yCBq@Jq@NsA?GDm@Be@@Q@g@@g@?_@?["}, "start_location": {"lat": 52.4823309, "lng": 13.4072718}, "travel_mode": "WALKING"}, {"distance": {"text": "0.1 km", "value": 128}, "duration": {"text": "2 mins", "value": 105}, "end_location": {"lat": 52.4804273, "lng": 13.4210113}, "html_instructions": "Slight <b>left</b> to stay on <b>Columbiadamm</b>", "maneuver": "turn-slight-left", "polyline": {"points": "e`i_Ie}{pAEUG{@Ca@IaABw@AOCe@C]Cc@I@"}, "start_location": {"lat": 52.480192, "lng": 13.4192281}, "travel_mode": "WALKING"}, {"distance": {"text": "0.9 km", "value": 875}, "duration": {"text": "11 mins", "value": 687}, "end_location": {"lat": 52.4819195, "lng": 13.4336295}, "html_instructions": "Continue onto <b>Flughafenstra\u00dfe</b>", "polyline": {"points": "uai_Iih|pAAYAGF?C[AYIc@Eu@WwEKqBGcAKcBGgACYSFAGEw@AENED?Ec@Cc@Ae@E_@CMAS?EAQK}A?KIoA?EKuACo@AIG}@U_EAUE@Ca@?GDAAUCa@Ce@O_CEk@GeA?AAWCBAGCk@DEAWCa@KcBCa@AKOqCCOAM?EAE?ECGCE"}, "start_location": {"lat": 52.4804273, "lng": 13.4210113}, "travel_mode": "WALKING"}, {"distance": {"text": "0.1 km", "value": 125}, "duration": {"text": "2 mins", "value": 99}, "end_location": {"lat": 52.4825948, "lng": 13.4322734}, "html_instructions": "Turn <b>left</b> onto <b>Karl-Marx-Stra\u00dfe</b><div style=\"font-size:0.9em\">Destination will be on the left</div>", "maneuver": "turn-left", "polyline": {"points": "_ki_Iew~pAKRILS^IZKVWt@IRCJO\\EJIX"}, "start_location": {"lat": 52.4819195, "lng": 13.4336295}, "travel_mode": "WALKING"}], "traffic_speed_entry": [], "via_waypoint": []}, {"distance": {"text": "1.6 km", "value": 1567}, "duration": {"text": "22 mins", "value": 1301}, "end_address": "Jonasstra\u00dfe 14, 12053 Berlin, Germany", "end_location": {"lat": 52.4719908, "lng": 13.4364238}, "start_address": "Karl-Marx-Stra\u00dfe 66, 12043 Berlin, Germany", "start_location": {"lat": 52.4825948, "lng": 13.4322734}, "steps": [{"distance": {"text": "1.2 km", "value": 1160}, "duration": {"text": "16 mins", "value": 957}, "end_location": {"lat": 52.4738356, "lng": 13.4404035}, "html_instructions": "Head <b>southeast</b> on <b>Karl-Marx-Stra\u00dfe</b> toward <b>Fuldastra\u00dfe</b>", "polyline": {"points": "eoi_Iun~pAHYDKN]BKHSVu@JWH[R_@HMJS@B@BNQ@?ACFKDEBEZe@HUb@s@DENWRQBGFKJYp@_A@IBODGLQLSPWDGPMt@gAN[JOPSR[LQLSBCRc@HIBAHIPMPKFEVO@A@A@HRSAGh@[PMDCNKRMNKVKt@g@FERMVOF[@PPIBAACVQ^Uz@i@FC\\QRMh@QfAa@LELGPG`@UDCLETIj@KHEZK`@MBANGNGFCHCr@_@RITGPO\\QPG"}, "start_location": {"lat": 52.4825948, "lng": 13.4322734}, "travel_mode": "WALKING"}, {"distance": {"text": "0.3 km", "value": 315}, "duration": {"text": "4 mins", "value": 266}, "end_location": {"lat": 52.47289079999999, "lng": 13.4361209}, "html_instructions": "Turn <b>right</b> onto <b>Thomasstra\u00dfe</b>", "maneuver": "turn-right", "polyline": {"points": "oxg_Ioa`qABV@^@FFx@?\\HtAJ`A@FDXP~@^`BRXCVBLPn@FXBHH\\Lh@@FBV@DDj@J\\EV"}, "start_location": {"lat": 52.4738356, "lng": 13.4404035}, "travel_mode": "WALKING"}, {"distance": {"text": "92 m", "value": 92}, "duration": {"text": "1 min", "value": 78}, "end_location": {"lat": 52.4719908, "lng": 13.4364238}, "html_instructions": "Turn <b>left</b> onto <b>Selkestra\u00dfe</b><div style=\"font-size:0.9em\">Destination will be on the right</div>", "maneuver": "turn-left", "polyline": {"points": "qrg_Iwf_qAZIB??AbAULCh@OB?RE"}, "start_location": {"lat": 52.47289079999999, "lng": 13.4361209}, "travel_mode": "WALKING"}], "traffic_speed_entry": [], "via_waypoint": []}], "overview_polyline": {"points": "u_i_I}mxpAQ]CQ_@kAi@cCk@qCa@gAmA}Cq@y@`AcEr@yCOSsE}A_@MD[\\yBZuB\\qCbBkMhC{RJiA@k@Fe@LGKEa@QViB`@yCBq@ZeCDu@HgC?{@MqAMcB@gAGcACc@I@Ca@F?C[K}@]mGg@aJCYSFG_AAENED?Ec@Cc@Ae@E_@Ea@AWU_EYmEWuEE@Ca@?GDAEw@a@wGAYCBEs@DEAWOeCEm@UuDIYU`@S^IZc@lAM^Uh@IXHYTi@L_@b@mAH[R_@Ta@BFNQ?Cl@}@bAgBVYRe@p@_A@IHWr@eAPMt@gAZk@d@o@Ze@Vg@LKt@i@XQBFRSAGh@[VQb@Yf@W|@m@j@]F[@PTKACVQzA_Ad@URMh@QtAg@^Of@YxAa@pAc@tAo@h@QPO\\QPGBVBf@FvATvCF`@p@`DRXCVT|@b@jBLpAJ\\EV^IzBk@VE"}, "summary": "Columbiadamm and Flughafenstra\u00dfe", "warnings": ["Walking directions are in beta. Use caution \u2013 This route may be missing sidewalks or pedestrian paths."], "waypoint_order": [0]}], "status": "OK"}