{"geocoded_waypoints": [{"geocoder_status": "OK", "place_id": "ChIJ47XQEUkFdkgRDBj60bbHglE", "types": ["route"]}, {"geocoder_status": "OK", "place_id": "ChIJA2B5-sIadkgRIriwNttpuLg", "types": ["route"]}], "routes": [{"bounds": {"northeast": {"lat": 51.5366052, "lng": -0.1537852}, "southwest": {"lat": 51.50724959999999, "lng": -0.1681622}}, "copyrights": "Powered by Google, \u00a92026 Google", "fare": {"currency": "GBP", "text": "\u00a31.75", "value": 1.75}, "legs": [{"arrival_time": {"text": "3:06\u202fPM", "time_zone": "Europe/London", "value": 1767366363}, "departure_time": {"text": "2:27\u202fPM", "time_zone": "Europe/London", "value": 1767364062}, "distance": {"text": "5.1 km", "value": 5097}, "duration": {"text": "38 mins", "value": 2301}, "end_address": "Unnamed Road, London NW1 4RY, UK", "end_location": {"lat": 51.5339196, "lng": -0.1552544}, "start_address": "Policemans Path, London W2 2UH, UK", "start_location": {"lat": 51.5072983, "lng": -0.1655063}, "steps": [{"distance": {"text": "0.8 km", "value": 802}, "duration": {"text": "11 mins", "value": 677}, "end_location": {"lat": 51.5131459, "lng": -0.1621845}, "html_instructions": "Walk to Marble Arch / Bayswater Road (Stop C)", "polyline": {"points": "s_kyHli_@B_@DcAa@Cc@AMAG?E?I@_@HEBIDGBGBE?QDG@GBC@CBCBCFAF]QS]gAJc@FeAJiAL@Ka@i@g@s@U]MKKKoAoA_AqAq@}@k@y@e@u@i@u@CMGUKVYY?XSHe@Na@NS@@LC@W@E@AQAMGw@?EA]AA"}, "start_location": {"lat": 51.5072983, "lng": -0.1655063}, "steps": [{"distance": {"text": "35 m", "value": 35}, "duration": {"text": "1 min", "value": 29}, "end_location": {"lat": 51.50724959999999, "lng": -0.1650127}, "html_instructions": "Head <b>east</b>", "polyline": {"points": "s_kyHli_@B_@DcA"}, "start_location": {"lat": 51.5072983, "lng": -0.1655063}, "travel_mode": "WALKING"}, {"distance": {"text": "0.1 km", "value": 134}, "duration": {"text": "2 mins", "value": 113}, "end_location": {"lat": 51.5084014, "lng": -0.1653113}, "html_instructions": "Turn <b>left</b>", "maneuver": "turn-left", "polyline": {"points": "i_kyHhf_@a@Cc@AMAG?E?I@_@HEBIDGBGBE?QDG@GBC@CBCBCFAF"}, "start_location": {"lat": 51.50724959999999, "lng": -0.1650127}, "travel_mode": "WALKING"}, {"distance": {"text": "33 m", "value": 33}, "duration": {"text": "1 min", "value": 27}, "end_location": {"lat": 51.5086504, "lng": -0.1650672}, "html_instructions": "Turn <b>right</b>", "maneuver": "turn-right", "polyline": {"points": "ofkyHdh_@]QS]"}, "start_location": {"lat": 51.5084014, "lng": -0.1653113}, "travel_mode": "WALKING"}, {"distance": {"text": "0.1 km", "value": 141}, "duration": {"text": "2 mins", "value": 109}, "end_location": {"lat": 51.5099133, "lng": -0.1652992}, "html_instructions": "Turn <b>left</b>", "maneuver": "turn-left", "polyline": {"points": "ahkyHtf_@gAJc@FeAJiAL"}, "start_location": {"lat": 51.5086504, "lng": -0.1650672}, "travel_mode": "WALKING"}, {"distance": {"text": "4 m", "value": 4}, "duration": {"text": "1 min", "value": 4}, "end_location": {"lat": 51.5099045, "lng": -0.1652367}, "html_instructions": "Turn <b>right</b>", "maneuver": "turn-right", "polyline": {"points": "}okyHbh_@@K"}, "start_location": {"lat": 51.5099133, "lng": -0.1652992}, "travel_mode": "WALKING"}, {"distance": {"text": "0.3 km", "value": 321}, "duration": {"text": "4 mins", "value": 268}, "end_location": {"lat": 51.512164, "lng": -0.1623716}, "html_instructions": "Turn <b>left</b>", "maneuver": "turn-left", "polyline": {"points": "{okyHvg_@a@i@g@s@U]MKKKoAoA_AqAq@}@k@y@e@u@i@u@CMGU"}, "start_location": {"lat": 51.5099045, "lng": -0.1652367}, "travel_mode": "WALKING"}, {"distance": {"text": "0.1 km", "value": 95}, "duration": {"text": "1 min", "value": 83}, "end_location": {"lat": 51.51307689999999, "lng": -0.1627182}, "html_instructions": "Turn <b>left</b> toward <b>Bayswater Rd</b>/<wbr/><b>A402</b>", "maneuver": "turn-left", "polyline": {"points": "_~kyHxu^KVYY?XSHe@Na@NS@@LC@W@E@AQ"}, "start_location": {"lat": 51.512164, "lng": -0.1623716}, "travel_mode": "WALKING"}, {"distance": {"text": "39 m", "value": 39}, "duration": {"text": "1 min", "value": 44}, "end_location": {"lat": 51.5131459, "lng": -0.1621845}, "html_instructions": "Turn <b>right</b> onto <b>Bayswater Rd</b>/<wbr/><b>A402</b><div style=\"font-size:0.9em\">Destination will be on the left</div>", "maneuver": "turn-right", "polyline": {"points": "wclyH~w^AMGw@?EA]AA"}, "start_location": {"lat": 51.51307689999999, "lng": -0.1627182}, "travel_mode": "WALKING"}], "travel_mode": "WALKING"}, {"distance": {"text": "3.8 km", "value": 3795}, "duration": {"text": "20 mins", "value": 1200}, "end_location": {"lat": 51.536583, "lng": -0.158585}, "html_instructions": "Bus towards Islington, Angel", "polyline": {"points": "adlyHrt^LGAMAMEa@CM?O?O?W@i@AMAQ?MGy@Cm@Cu@?UAMAg@ODKiBASCY?AAC?CCGCY@M?G?E?IASAEAK?KCQ?EAQAc@?AAI@G?E@ICa@G_AKkBGiAIqBIcBEqACw@Cu@ASAi@GkAYD_@Hg@N]NODC@OFQFWJYLKDc@NWJ{@ZWHYJo@T_@L_@La@Na@LC@WJw@X_@Lg@R]LaA^m@RmAb@e@NgBn@kBp@[J_@L_@NSFWJo@Tg@PmA^C@c@NIDQFQDYJWHUFMDID_AVIDEBSHc@R_Bl@]Le@P}@Z[fACHCFEHCHCFEHUj@Q\\a@|@EJIN?@OZO^A@IRYl@_@v@EHA@ABEFGLOPDv@OFC@C@EBEBON_@`AM\\O\\ELIXo@pBABGLKT?@c@v@aAlBWd@CDU`@Wd@ILKNGHm@z@QV]f@CNAB?BMNSTQTo@z@_@b@k@t@OREDGJQRIJEHMNa@n@Y^KTGPMVSbAA?A@A?A?A?A?A?A?C?A?C?C?CAAACAACUq@WWMKIGKIMIKISOWe@KIq@]SKIC_Aa@c@Qk@[s@_@[Qm@]g@[GCs@a@CCe@]UUUUi@m@q@u@]k@IKS]EGWc@CIMSOa@EGCMGQGQGSYw@GSEMe@yAGSMg@Ma@CKEUCMCGKg@Qw@Ou@GWSeAe@gCOeACQIi@COKo@OiAEWID"}, "start_location": {"lat": 51.5131331, "lng": -0.1621798}, "transit_details": {"arrival_stop": {"location": {"lat": 51.536583, "lng": -0.158585}, "name": "Primrose Hill / London Zoo (Stop H)"}, "arrival_time": {"text": "2:59\u202fPM", "time_zone": "Europe/London", "value": 1767365940}, "departure_stop": {"location": {"lat": 51.5131331, "lng": -0.1621798}, "name": "Marble Arch / Bayswater Road (Stop C)"}, "departure_time": {"text": "2:39\u202fPM", "time_zone": "Europe/London", "value": 1767364740}, "headsign": "Islington, Angel", "line": {"agencies": [{"name": "Transport for London", "url": "https://tfl.gov.uk"}], "color": "#ce312d", "name": "Angel - Lancaster Gate", "short_name": "274", "text_color": "#ffffff", "url": "https://tfl.gov.uk/", "vehicle": {"icon": "//maps.gstatic.com/mapfiles/transit/iw2/6/bus2.png", "local_icon": "//maps.gstatic.com/mapfiles/transit/iw2/6/uk-london-bus.png", "name": "Bus", "type": "BUS"}}, "num_stops": 12}, "travel_mode": "TRANSIT"}, {"distance": {"text": "0.5 km", "value": 500}, "duration": {"text": "7 mins", "value": 423}, "end_location": {"lat": 51.5339196, "lng": -0.1552544}, "html_instructions": "Walk to Unnamed Road, London NW1 4RY, UK", "polyline": {"points": "yvpyHf~]DVPfABRDAPKBAFZBPFBVPFCFA^S?A\\SVM`@SDAn@[\\MFCDAD??E@G?C@C@EJWDI@A@EBKDS@G@K?OAK?I?K@QBQDSLs@H_@TgANs@Ns@Ls@H_@FSNq@Ns@BK"}, "start_location": {"lat": 51.5366052, "lng": -0.1585993}, "steps": [{"distance": {"text": "60 m", "value": 60}, "duration": {"text": "1 min", "value": 58}, "end_location": {"lat": 51.5362729, "lng": -0.1593287}, "html_instructions": "Head <b>west</b> on <b>Prince Albert Rd</b>/<wbr/><b>A5205</b> toward <b>Ormonde Terrace</b>", "polyline": {"points": "yvpyHf~]DVPfABRDAPKBAFZBP"}, "start_location": {"lat": 51.5366052, "lng": -0.1585993}, "travel_mode": "WALKING"}, {"distance": {"text": "0.2 km", "value": 169}, "duration": {"text": "2 mins", "value": 144}, "end_location": {"lat": 51.53490919999999, "lng": -0.1587791}, "html_instructions": "Turn <b>left</b>", "maneuver": "turn-left", "polyline": {"points": "utpyHxb^FBVPFCFA^S?A\\SVM`@SDAn@[\\MFCDAD?"}, "start_location": {"lat": 51.5362729, "lng": -0.1593287}, "travel_mode": "WALKING"}, {"distance": {"text": "0.3 km", "value": 271}, "duration": {"text": "4 mins", "value": 221}, "end_location": {"lat": 51.5339196, "lng": -0.1552544}, "html_instructions": "Turn <b>left</b><div style=\"font-size:0.9em\">Destination will be on the right</div>", "maneuver": "turn-left", "polyline": {"points": "elpyHj_^?E@G?C@C@EJWDI@A@EBKDS@G@K?OAK?I?K@QBQDSLs@H_@TgANs@Ns@Ls@H_@FSNq@Ns@BK"}, "start_location": {"lat": 51.53490919999999, "lng": -0.1587791}, "travel_mode": "WALKING"}], "travel_mode": "WALKING"}], "traffic_speed_entry": [], "via_waypoint": []}], "overview_polyline": {"points": "s_kyHli_@HcBeAEe@?e@LQHg@JKDGFEN]QS]kBRoCX@Ka@i@}@qAYWoAoA_AqA}AwBoAkBKc@KVYY?XSHgA^S@@L[BE@AQIeAAc@@ALGC[Io@?_@?oAMgCGaCODKiBEm@EQAg@?MEo@GmB@OKaBg@kKOsEIuBy@NyAf@sAh@cC|@aCx@_GtBqNbFkBp@iDhAqAb@uAb@yAf@w@\\}Bz@cBl@_@pAQb@oBjE_BjDMTOPDv@SHIDURm@~AoAvDwCzFcAdBeBdCERMRuBjCyBtC{@nASf@MVSbAC@G?I?MCEEUq@WWWSYS_@YWe@KIeAi@iAe@_D_BqC_Bi@a@k@k@{AcBg@w@q@iAg@gA[eAmAsDg@iBcAyEy@mESwAi@sDEWIDEBDVTzAVMBAFZBPFBVPFCf@UvAw@zAo@JA@MNe@L]F[@[Aa@Dc@RgA~@oEn@yCR_A"}, "summary": "", "warnings": ["Walking directions are in beta. Use caution \u2013 This route may be missing sidewalks or pedestrian paths."], "waypoint_order": []}], "status": "OK"}