{"geocoded_waypoints": [{"geocoder_status": "OK", "place_id": "ChIJd6W0GuIPdkgRst4zqfcjagQ", "types": ["street_address", "subpremise"]}, {"geocoder_status": "OK", "place_id": "ChIJ47XQEUkFdkgRDBj60bbHglE", "types": ["route"]}], "routes": [{"bounds": {"northeast": {"lat": 51.5192936, "lng": -0.1600758}, "southwest": {"lat": 51.50724959999999, "lng": -0.2054615}}, "copyrights": "Powered by Google, \u00a92026 Google", "fare": {"currency": "GBP", "text": "\u00a31.75", "value": 1.75}, "legs": [{"arrival_time": {"text": "3:06\u202fPM", "time_zone": "Europe/London", "value": 1767366395}, "departure_time": {"text": "2:29\u202fPM", "time_zone": "Europe/London", "value": 1767364167}, "distance": {"text": "4.9 km", "value": 4877}, "duration": {"text": "37 mins", "value": 2228}, "end_address": "Policemans Path, London W2 2UH, UK", "end_location": {"lat": 51.5072983, "lng": -0.1655063}, "start_address": "6 Kensington Park Rd, London W11, UK", "start_location": {"lat": 51.5151833, "lng": -0.2054615}, "steps": [{"distance": {"text": "45 m", "value": 45}, "duration": {"text": "1 min", "value": 36}, "end_location": {"lat": 51.5150651, "lng": -0.2051428}, "html_instructions": "Walk to Portobello Road (Stop PJ)", "polyline": {"points": "{plyHbcg@^UCME["}, "start_location": {"lat": 51.5151833, "lng": -0.2054615}, "steps": [{"distance": {"text": "23 m", "value": 23}, "duration": {"text": "1 min", "value": 18}, "end_location": {"lat": 51.5150233, "lng": -0.2053494}, "html_instructions": "Head <b>southeast</b> on <b>Kensington Park Rd</b>", "polyline": {"points": "{plyHbcg@^U"}, "start_location": {"lat": 51.5151833, "lng": -0.2054615}, "travel_mode": "WALKING"}, {"distance": {"text": "22 m", "value": 22}, "duration": {"text": "1 min", "value": 18}, "end_location": {"lat": 51.5150651, "lng": -0.2051428}, "html_instructions": "At the roundabout, take the <b>1st</b> exit onto <b>Elgin Cres</b><div style=\"font-size:0.9em\">Destination will be on the left</div>", "maneuver": "roundabout-left", "polyline": {"points": "{olyHlbg@CME["}, "start_location": {"lat": 51.5150233, "lng": -0.2053494}, "travel_mode": "WALKING"}], "travel_mode": "WALKING"}, {"distance": {"text": "3.9 km", "value": 3878}, "duration": {"text": "24 mins", "value": 1423}, "end_location": {"lat": 51.5136383, "lng": -0.1604606}, "html_instructions": "Bus towards Temple", "polyline": {"points": "aplyHbag@HEE[Ky@CWAEFCEi@UqBGi@C]Iq@?CEYASGq@IcA|@]v@[LGJEVK\\OBAb@SBAAUAGGeAAKEs@Eo@Ck@A[WgEA?A?A??AA??AA??A?AAA?A?A?A?A?A?A@??A?A@??A@??A@?OsBQcDMeB?GAGAOg@aJEq@AO?EGy@AO?IMiBKkB?IIyAOoCEm@OqCKiBIwAGsAMmBE{@C]Ei@Ea@ESCOS}@AGMg@AGGYCOYaBKm@G_@G[WwAk@eDq@_EUiAYcB[iBEOIg@Ks@Y]Gq@E[MmAIg@G]Q_AG[EUPIDKHMP[LUDG@CPWP[j@_Aj@{@b@m@DGl@_AZg@BGBENUBCXg@Vc@T_@LSFIxAeCNYTk@EIIQEIc@_AUg@?AGKWm@MWKUAACG?AMUCQ_@w@g@eACEs@{AUe@]u@Qa@Wi@]u@a@{@OYM[q@uA[s@Q_@Ui@[q@KUMWIQ_AoBQ_@Q_@Ug@EKUg@KQ\\i@\\i@JOt@oA|@uALSTe@Xa@LS|@wAh@}@p@iAHOXg@DGJQFKXe@@CBEz@uAd@u@n@gAPWJQJQJQnAsBFKHMh@_A~BgE`@s@Zi@\\q@Ra@Zi@DILUIO"}, "start_location": {"lat": 51.51504910000001, "lng": -0.2051357}, "transit_details": {"arrival_stop": {"location": {"lat": 51.5136383, "lng": -0.1604606}, "name": "Marble Arch Station / Edgware Road (Stop H)"}, "arrival_time": {"text": "2:53\u202fPM", "time_zone": "Europe/London", "value": 1767365617}, "departure_stop": {"location": {"lat": 51.51504910000001, "lng": -0.2051357}, "name": "Portobello Road (Stop PJ)"}, "departure_time": {"text": "2:30\u202fPM", "time_zone": "Europe/London", "value": 1767364203}, "headsign": "Temple", "line": {"agencies": [{"name": "Transport for London", "url": "https://tfl.gov.uk"}], "color": "#ce312d", "name": "Temple - Westbourne Park", "short_name": "23", "text_color": "#ffffff", "url": "https://tfl.gov.uk/", "vehicle": {"icon": "//maps.gstatic.com/mapfiles/transit/iw2/6/bus2.png", "local_icon": "//maps.gstatic.com/mapfiles/transit/iw2/6/uk-london-bus.png", "name": "Bus", "type": "BUS"}}, "num_stops": 10}, "travel_mode": "TRANSIT"}, {"distance": {"text": "1.0 km", "value": 954}, "duration": {"text": "13 mins", "value": 778}, "end_location": {"lat": 51.5072983, "lng": -0.1655063}, "html_instructions": "Walk to Policemans Path, London W2 2UH, UK", "polyline": {"points": "gglyHzi^A@Tg@Re@BFJP@DBLDEDA?ATCTADp@J~A?@@@@?`@G`@IPE?@VR@ALJAOFA@?@BDGFILANALeAd@p@BBt@hABBV`@Xd@v@hAt@jADHxAvBjBxCpApBt@jAb@j@LRLVR\\\\P@GBGBCBCBAFCFAPED?FCFCHEDC^IHAD?F?L@b@@`@BEbAC^"}, "start_location": {"lat": 51.51363929999999, "lng": -0.1604575}, "steps": [{"distance": {"text": "34 m", "value": 34}, "duration": {"text": "1 min", "value": 28}, "end_location": {"lat": 51.5134163, "lng": -0.1601165}, "html_instructions": "Head <b>southeast</b> on <b>Edgware Rd</b>/<wbr/><b>A5</b>", "polyline": {"points": "gglyHzi^A@Tg@Re@BF"}, "start_location": {"lat": 51.51363929999999, "lng": -0.1604575}, "travel_mode": "WALKING"}, {"distance": {"text": "11 m", "value": 11}, "duration": {"text": "1 min", "value": 18}, "end_location": {"lat": 51.51333340000001, "lng": -0.1603095}, "html_instructions": "Turn <b>right</b>", "maneuver": "turn-right", "polyline": {"points": "{elyHvg^JP@DBL"}, "start_location": {"lat": 51.5134163, "lng": -0.1601165}, "travel_mode": "WALKING"}, {"distance": {"text": "33 m", "value": 33}, "duration": {"text": "1 min", "value": 36}, "end_location": {"lat": 51.5130456, "lng": -0.160233}, "html_instructions": "Turn <b>left</b>", "maneuver": "turn-left", "polyline": {"points": "ielyH|h^DEDA?ATCTA"}, "start_location": {"lat": 51.51333340000001, "lng": -0.1603095}, "travel_mode": "WALKING"}, {"distance": {"text": "0.1 km", "value": 127}, "duration": {"text": "2 mins", "value": 107}, "end_location": {"lat": 51.5123127, "lng": -0.161025}, "html_instructions": "Turn <b>right</b>", "maneuver": "turn-right", "polyline": {"points": "qclyHlh^Dp@J~A?@@@@?`@G`@IPE?@VR@ALJ"}, "start_location": {"lat": 51.5130456, "lng": -0.160233}, "travel_mode": "WALKING"}, {"distance": {"text": "35 m", "value": 35}, "duration": {"text": "1 min", "value": 29}, "end_location": {"lat": 51.5120369, "lng": -0.1608383}, "html_instructions": "Turn <b>left</b>", "maneuver": "turn-left", "polyline": {"points": "}~kyHjm^AOFA@?@BDGFILANA"}, "start_location": {"lat": 51.5123127, "lng": -0.161025}, "travel_mode": "WALKING"}, {"distance": {"text": "25 m", "value": 25}, "duration": {"text": "1 min", "value": 22}, "end_location": {"lat": 51.5119692, "lng": -0.1604921}, "html_instructions": "Turn <b>left</b>", "maneuver": "turn-left", "polyline": {"points": "g}kyHfl^LeA"}, "start_location": {"lat": 51.5120369, "lng": -0.1608383}, "travel_mode": "WALKING"}, {"distance": {"text": "0.5 km", "value": 520}, "duration": {"text": "7 mins", "value": 407}, "end_location": {"lat": 51.5084014, "lng": -0.1653113}, "html_instructions": "Turn <b>right</b>", "maneuver": "turn-right", "polyline": {"points": "y|kyH`j^d@p@BBt@hABBV`@Xd@v@hAt@jADHxAvBjBxCpApBt@jAb@j@LRLVR\\\\P"}, "start_location": {"lat": 51.5119692, "lng": -0.1604921}, "travel_mode": "WALKING"}, {"distance": {"text": "0.1 km", "value": 134}, "duration": {"text": "2 mins", "value": 102}, "end_location": {"lat": 51.50724959999999, "lng": -0.1650127}, "html_instructions": "Turn <b>left</b>", "maneuver": "turn-left", "polyline": {"points": "ofkyHdh_@@GBGBCBCBAFCFAPED?FCFCHEDC^IHAD?F?L@b@@`@B"}, "start_location": {"lat": 51.5084014, "lng": -0.1653113}, "travel_mode": "WALKING"}, {"distance": {"text": "35 m", "value": 35}, "duration": {"text": "1 min", "value": 29}, "end_location": {"lat": 51.5072983, "lng": -0.1655063}, "html_instructions": "Turn <b>right</b>", "maneuver": "turn-right", "polyline": {"points": "i_kyHhf_@EbAC^"}, "start_location": {"lat": 51.50724959999999, "lng": -0.1650127}, "travel_mode": "WALKING"}], "travel_mode": "WALKING"}], "traffic_speed_entry": [], "via_waypoint": []}], "overview_polyline": {"points": "{plyHbcg@^UCME[B?HEE[OqAAEFC[{CU}BYcDnCgA|Aq@BAAUImAQ{C[cFA?AAEMBI@CiBa[{@qOm@gL]qFKu@WmAYqAoDySqAgHU{AY]Gq@SiBQeAY{AEUPINY^q@j@_A`CqDpAuBjEiHNYTk@EIO[y@gBm@sAQa@Qg@gA}BkB}DuE}JyDkIcA{BKQ\\i@\\i@lCiEn@gAjAkB~B_Er@kA`EyGlB_DfFeJrAgCLUIOA@h@mANXDRJGTETAPrCB@tAWVT@ALJAOFABBLQ\\CLeAd@p@x@lAlBtCz@tAdEpGxD|F`@t@\\P@GFKFEf@K^Qh@KL?p@B`@BEbAC^"}, "summary": "", "warnings": ["Walking directions are in beta. Use caution \u2013 This route may be missing sidewalks or pedestrian paths."], "waypoint_order": []}], "status": "OK"}