{"geocoded_waypoints": [{"geocoder_status": "OK", "place_id": "ChIJqS--r3AoQg0R6SmEpz_ROJo", "types": ["street_address", "subpremise"]}, {"geocoder_status": "OK", "place_id": "ChIJxxF4c24oQg0RKOK2-yKMUFU", "types": ["premise", "street_address"]}], "routes": [{"bounds": {"northeast": {"lat": 40.4255534, "lng": -3.712936}, "southwest": {"lat": 40.4181961, "lng": -3.7176486}}, "copyrights": "Powered by Google, \u00a92026 Google", "legs": [{"arrival_time": {"text": "3:43\u202fPM", "time_zone": "Europe/Madrid", "value": 1767364992}, "departure_time": {"text": "3:29\u202fPM", "time_zone": "Europe/Madrid", "value": 1767364170}, "distance": {"text": "1.5 km", "value": 1514}, "duration": {"text": "14 mins", "value": 822}, "end_address": "C. de Ferraz, 1, Moncloa - Aravaca, 28008 Madrid, Spain", "end_location": {"lat": 40.4241307, "lng": -3.7176004}, "start_address": "C. de Bail\u00e9n, 4, Centro, 28013 Madrid, Spain", "start_location": {"lat": 40.4181961, "lng": -3.7151262}, "steps": [{"distance": {"text": "0.5 km", "value": 460}, "duration": {"text": "6 mins", "value": 342}, "end_location": {"lat": 40.4202196, "lng": -3.7158341}, "html_instructions": "Walk to Cuesta de San Vicente", "polyline": {"points": "wduuFprtUaAGc@Cc@C_@Ac@Cc@A_@CI@BJDJFFFBHB@@B?B@H@^@^DL@DBFDBBJDDDCBG?G?IAOAGA]CA?A?C?A?C@CBCDSCIAUCYAE?I@C@A@A?ADADKj@IA?NL@?RMAw@E"}, "start_location": {"lat": 40.4181961, "lng": -3.7151262}, "steps": [{"distance": {"text": "0.2 km", "value": 155}, "duration": {"text": "2 mins", "value": 111}, "end_location": {"lat": 40.4196227, "lng": -3.7149998}, "html_instructions": "Head <b>north</b><div style=\"font-size:0.9em\">Restricted usage road</div>", "polyline": {"points": "wduuFprtUaAGc@Cc@C_@Ac@Cc@A_@CI@"}, "start_location": {"lat": 40.4181961, "lng": -3.7151262}, "travel_mode": "WALKING"}, {"distance": {"text": "0.1 km", "value": 106}, "duration": {"text": "1 min", "value": 76}, "end_location": {"lat": 40.4187663, "lng": -3.7154124}, "html_instructions": "Turn <b>left</b><div style=\"font-size:0.9em\">Restricted usage road</div>", "maneuver": "turn-left", "polyline": {"points": "smuuFvqtUBJDJFFFBHB@@B?B@H@^@^DL@DBFDBBJDDD"}, "start_location": {"lat": 40.4196227, "lng": -3.7149998}, "travel_mode": "WALKING"}, {"distance": {"text": "0.2 km", "value": 161}, "duration": {"text": "2 mins", "value": 123}, "end_location": {"lat": 40.4198658, "lng": -3.7158656}, "html_instructions": "Turn <b>right</b><div style=\"font-size:0.9em\">Partial restricted usage road</div>", "maneuver": "turn-right", "polyline": {"points": "ihuuFhttUCBG?G?IAOAGA]CA?A?C?A?C@CBCDSCIAUCYAE?I@C@A@A?ADADKj@IA?NL@?R"}, "start_location": {"lat": 40.4187663, "lng": -3.7154124}, "travel_mode": "WALKING"}, {"distance": {"text": "38 m", "value": 38}, "duration": {"text": "1 min", "value": 32}, "end_location": {"lat": 40.4202196, "lng": -3.7158341}, "html_instructions": "Turn <b>right</b>", "maneuver": "turn-right", "polyline": {"points": "eouuFdwtUMAw@E"}, "start_location": {"lat": 40.4198658, "lng": -3.7158656}, "travel_mode": "WALKING"}], "travel_mode": "WALKING"}, {"distance": {"text": "0.7 km", "value": 709}, "duration": {"text": "4 mins", "value": 267}, "end_location": {"lat": 40.4246453, "lng": -3.7157149}, "html_instructions": "Bus towards Cristo Rey", "polyline": {"points": "qquuFxvtUO??A?C?QAM?C?EAIEOKUcB{C]m@_@q@]o@OY[i@Y]OWS]ECEEIIEECBMNEFEDGLA@KP[f@GLW^A@W`@ELELGHEHEDA@ABC@ABCBCBCBEFGDKLKJSRUTIHIHIHIHGFC@IJIFKJUPGHKJo@n@a@`@EBKJCDMU"}, "start_location": {"lat": 40.42025, "lng": -3.71581}, "transit_details": {"arrival_stop": {"location": {"lat": 40.4246453, "lng": -3.7157149}, "name": "Templo de Debod"}, "arrival_time": {"text": "3:37\u202fPM", "time_zone": "Europe/Madrid", "value": 1767364659}, "departure_stop": {"location": {"lat": 40.42025, "lng": -3.71581}, "name": "Cuesta de San Vicente"}, "departure_time": {"text": "3:35\u202fPM", "time_zone": "Europe/Madrid", "value": 1767364512}, "headsign": "Cristo Rey", "line": {"agencies": [{"name": "Empresa Municipal de Transportes de Madrid", "phone": "011 34 915 80 42 60", "url": "http://www.crtm.es/"}], "color": "#0178bc", "name": "Plaza de Cristo Rey - los Puertos", "short_name": "62", "text_color": "#ffffff", "url": "https://www.emtmadrid.es/EMTBUS/Mi-linea?linea=62", "vehicle": {"icon": "//maps.gstatic.com/mapfiles/transit/iw2/6/bus2.png", "name": "Bus", "type": "BUS"}}, "num_stops": 2}, "travel_mode": "TRANSIT"}, {"distance": {"text": "0.3 km", "value": 345}, "duration": {"text": "6 mins", "value": 333}, "end_location": {"lat": 40.4241307, "lng": -3.7176004}, "html_instructions": "Walk to C. de Ferraz, 1, Moncloa - Aravaca, 28008 Madrid, Spain", "polyline": {"points": "ylvuFtvtUEDQRBGSAKLQLEDOTMLULQNQXIFMLJTA@BFDLFHFFHHFDXHB@D@@Bb@JEX^?hA[NbAD^`@I"}, "start_location": {"lat": 40.4246063, "lng": -3.7157882}, "steps": [{"distance": {"text": "0.1 km", "value": 127}, "duration": {"text": "2 mins", "value": 121}, "end_location": {"lat": 40.4255534, "lng": -3.7166139}, "html_instructions": "Head <b>northwest</b> on <b>C. de Ferraz</b> toward <b>Calle de Luisa Fernanda</b>", "polyline": {"points": "ylvuFtvtUEDQRBGSAKLQLEDOTMLULQNQXIFML"}, "start_location": {"lat": 40.4246063, "lng": -3.7157882}, "travel_mode": "WALKING"}, {"distance": {"text": "82 m", "value": 82}, "duration": {"text": "2 mins", "value": 92}, "end_location": {"lat": 40.4249084, "lng": -3.7171557}, "html_instructions": "Take the crosswalk<div style=\"font-size:0.9em\">Take the stairs</div>", "polyline": {"points": "urvuFx{tUJTA@BFDLFHFFHHFDXHB@D@@Bb@J"}, "start_location": {"lat": 40.4255534, "lng": -3.7166139}, "travel_mode": "WALKING"}, {"distance": {"text": "12 m", "value": 12}, "duration": {"text": "1 min", "value": 10}, "end_location": {"lat": 40.4249427, "lng": -3.7172946}, "html_instructions": "Turn <b>right</b>", "maneuver": "turn-right", "polyline": {"points": "unvuFf_uUEX"}, "start_location": {"lat": 40.4249084, "lng": -3.7171557}, "travel_mode": "WALKING"}, {"distance": {"text": "61 m", "value": 61}, "duration": {"text": "1 min", "value": 50}, "end_location": {"lat": 40.4244131, "lng": -3.7171488}, "html_instructions": "Turn <b>left</b>", "maneuver": "turn-left", "polyline": {"points": "{nvuF``uU^?hA["}, "start_location": {"lat": 40.4249427, "lng": -3.7172946}, "travel_mode": "WALKING"}, {"distance": {"text": "44 m", "value": 44}, "duration": {"text": "1 min", "value": 36}, "end_location": {"lat": 40.4242955, "lng": -3.7176486}, "html_instructions": "Turn <b>right</b>", "maneuver": "turn-right", "polyline": {"points": "qkvuFd_uUNbAD^"}, "start_location": {"lat": 40.4244131, "lng": -3.7171488}, "travel_mode": "WALKING"}, {"distance": {"text": "19 m", "value": 19}, "duration": {"text": "1 min", "value": 24}, "end_location": {"lat": 40.4241307, "lng": -3.7176004}, "html_instructions": "Turn <b>left</b><div style=\"font-size:0.9em\">Take the stairs</div>", "maneuver": "turn-left", "polyline": {"points": "{jvuFhbuU`@I"}, "start_location": {"lat": 40.4242955, "lng": -3.7176486}, "travel_mode": "WALKING"}], "travel_mode": "WALKING"}], "traffic_speed_entry": [], "via_waypoint": []}], "overview_polyline": {"points": "wduuFprtUiDQqBGHVNJRFhAHRDJHPJKBi@Ee@CE@GHmAKUDQv@IA?NL@?ReAGECO??EA_@Gc@oBqD}@_Bm@iA[i@Y]c@u@KIOOQRU\\gAfBe@~@a@h@wAxAaFzECDMUFNEDQRBGSAKLWR]b@g@\\[`@MLJT@HLVPPj@Rd@NEX^?hA[NbAD^`@I"}, "summary": "", "warnings": ["Walking directions are in beta. Use caution \u2013 This route may be missing sidewalks or pedestrian paths."], "waypoint_order": []}], "status": "OK"}