{"geocoded_waypoints": [{"geocoder_status": "OK", "place_id": "ChIJ0eJupZ8oQg0RaGUh1msjY6I", "types": ["street_address"]}, {"geocoder_status": "OK", "place_id": "ChIJbaugqoYoQg0RYrCVl2X-ggA", "types": ["establishment", "point_of_interest"]}], "routes": [{"bounds": {"northeast": {"lat": 40.4231512, "lng": -3.6845027}, "southwest": {"lat": 40.4153527, "lng": -3.6985653}}, "copyrights": "Powered by Google, \u00a92026 Google", "legs": [{"arrival_time": {"text": "3:47\u202fPM", "time_zone": "Europe/Madrid", "value": 1767365226}, "departure_time": {"text": "3:30\u202fPM", "time_zone": "Europe/Madrid", "value": 1767364227}, "distance": {"text": "2.3 km", "value": 2335}, "duration": {"text": "17 mins", "value": 999}, "end_address": "C. Alcal\u00e1, 30, Centro, 28014 Madrid, Spain", "end_location": {"lat": 40.4181736, "lng": -3.6980728}, "start_address": "P.\u00ba Argentina, 4D, Retiro, 28009 Madrid, Spain", "start_location": {"lat": 40.4153811, "lng": -3.6845027}, "steps": [{"distance": {"text": "0.8 km", "value": 801}, "duration": {"text": "11 mins", "value": 647}, "end_location": {"lat": 40.4203205, "lng": -3.6892296}, "html_instructions": "Walk to Puerta de Alcal\u00e1", "polyline": {"points": "cstuFbsnU?p@BnA?t@@T[HE@eATEAC?I@EBCBC@ABABABEAGAE?C?e@JSFs@lB]HOBu@Bk@Ji@J_AZ}@b@q@\\[NSACDGDGDE@{@d@EJG?GAICCHCDAFABADIR?@A?SHADADGN[QSDODYH?A_@XAF?DQZADOh@CAEAEAA??FE`@?DB?@@FBDB@J@JBJBHDJDHDFBB"}, "start_location": {"lat": 40.4153811, "lng": -3.6845027}, "steps": [{"distance": {"text": "87 m", "value": 87}, "duration": {"text": "1 min", "value": 64}, "end_location": {"lat": 40.4153527, "lng": -3.6855336}, "html_instructions": "Head <b>west</b> on <b>P.\u00ba Paraguay</b> toward <b>P.\u00ba de Carros</b>", "polyline": {"points": "cstuFbsnU?p@BnA?t@@T"}, "start_location": {"lat": 40.4153811, "lng": -3.6845027}, "travel_mode": "WALKING"}, {"distance": {"text": "0.1 km", "value": 131}, "duration": {"text": "2 mins", "value": 104}, "end_location": {"lat": 40.4164754, "lng": -3.6858875}, "html_instructions": "Turn <b>right</b>", "maneuver": "turn-right", "polyline": {"points": "}rtuFpynU[HE@eATEAC?I@EBCBC@ABABABEAGAE?C?e@JSF"}, "start_location": {"lat": 40.4153527, "lng": -3.6855336}, "travel_mode": "WALKING"}, {"distance": {"text": "55 m", "value": 55}, "duration": {"text": "1 min", "value": 40}, "end_location": {"lat": 40.4167373, "lng": -3.6864424}, "html_instructions": "Slight <b>left</b>", "maneuver": "turn-slight-left", "polyline": {"points": "_ztuFx{nUs@lB"}, "start_location": {"lat": 40.4164754, "lng": -3.6858875}, "travel_mode": "WALKING"}, {"distance": {"text": "0.3 km", "value": 314}, "duration": {"text": "4 mins", "value": 245}, "end_location": {"lat": 40.4193818, "lng": -3.687513399999999}, "html_instructions": "Turn <b>right</b>", "maneuver": "turn-right", "polyline": {"points": "s{tuFf_oU]HOBu@Bk@Ji@J_AZ}@b@q@\\[NSACDGDGDE@{@d@EJG?GAIC"}, "start_location": {"lat": 40.4167373, "lng": -3.6864424}, "travel_mode": "WALKING"}, {"distance": {"text": "53 m", "value": 53}, "duration": {"text": "1 min", "value": 41}, "end_location": {"lat": 40.419667, "lng": -3.68798}, "html_instructions": "Turn <b>left</b> onto <b>P.\u00ba de M\u00e9xico</b><div style=\"font-size:0.9em\">Take the stairs</div>", "maneuver": "turn-left", "polyline": {"points": "cluuF|eoUCHCDAFABADIR?@A?SHADADGN"}, "start_location": {"lat": 40.4193818, "lng": -3.687513399999999}, "travel_mode": "WALKING"}, {"distance": {"text": "46 m", "value": 46}, "duration": {"text": "1 min", "value": 39}, "end_location": {"lat": 40.4201182, "lng": -3.6879992}, "html_instructions": "Turn <b>right</b> toward <b>Pl. de la Independencia</b>", "maneuver": "turn-right", "polyline": {"points": "}muuFzhoU[QSDODYH"}, "start_location": {"lat": 40.419667, "lng": -3.68798}, "travel_mode": "WALKING"}, {"distance": {"text": "34 m", "value": 34}, "duration": {"text": "1 min", "value": 46}, "end_location": {"lat": 40.4202939, "lng": -3.688189899999999}, "html_instructions": "Take the crosswalk", "polyline": {"points": "wpuuF~hoU?A_@XAF?D"}, "start_location": {"lat": 40.4201182, "lng": -3.6879992}, "travel_mode": "WALKING"}, {"distance": {"text": "50 m", "value": 50}, "duration": {"text": "1 min", "value": 36}, "end_location": {"lat": 40.4204872, "lng": -3.6888289}, "html_instructions": "Continue onto <b>Pl. de la Independencia</b>", "polyline": {"points": "yquuFdjoUQZADOh@CAEAEAA??FE`@?DB?@@FBDB"}, "start_location": {"lat": 40.4202939, "lng": -3.688189899999999}, "travel_mode": "WALKING"}, {"distance": {"text": "31 m", "value": 31}, "duration": {"text": "1 min", "value": 32}, "end_location": {"lat": 40.4203205, "lng": -3.6892296}, "html_instructions": "Enter the roundabout<div style=\"font-size:0.9em\">Destination will be on the right</div>", "polyline": {"points": "asuuFdnoU@J@JBJBHDJDHDFBB"}, "start_location": {"lat": 40.4204872, "lng": -3.6888289}, "travel_mode": "WALKING"}], "travel_mode": "WALKING"}, {"distance": {"text": "1.5 km", "value": 1457}, "duration": {"text": "5 mins", "value": 327}, "end_location": {"lat": 40.4183665, "lng": -3.6983053}, "html_instructions": "Bus towards Sol/sevilla", "polyline": {"points": "uruuFpooUVQ?BBDBFDF@B@@DBDBI^Of@CJo@xBOh@GRCHQn@m@tBUx@GRCFOGSIUI_@MOGQGMEKEWIKEGC[KOGmBs@WAQECr@^Lp@TZJd@Pd@PLDHDF@@@THJB^NhBn@ZLRF^LPF@@NDHDJBRFHDFBPVDBNHHBJDPHTLJHCHAHCL?F?D?B?F@L?H@HDB@?HHDFHHHF`@THd@Fh@Fh@NvAPpALlAFf@BRDb@Jh@Nv@RbAJf@H^F^BNBJBLBNBLBLDRDPBLBLBL@HQH"}, "start_location": {"lat": 40.4204338, "lng": -3.6890452}, "transit_details": {"arrival_stop": {"location": {"lat": 40.4183665, "lng": -3.6983053}, "name": "Sevilla"}, "arrival_time": {"text": "3:45\u202fPM", "time_zone": "Europe/Madrid", "value": 1767365159}, "departure_stop": {"location": {"lat": 40.4204338, "lng": -3.6890452}, "name": "Puerta de Alcal\u00e1"}, "departure_time": {"text": "3:41\u202fPM", "time_zone": "Europe/Madrid", "value": 1767364875}, "headsign": "Sol/sevilla", "line": {"agencies": [{"name": "Empresa Municipal de Transportes de Madrid", "phone": "011 34 915 80 42 60", "url": "http://www.crtm.es/"}], "color": "#0178bc", "name": "Puerta del Sol/sevilla - Santamarca", "short_name": "52", "text_color": "#ffffff", "url": "https://www.emtmadrid.es/EMTBUS/Mi-linea?linea=52", "vehicle": {"icon": "//maps.gstatic.com/mapfiles/transit/iw2/6/bus2.png", "name": "Bus", "type": "BUS"}}, "num_stops": 2}, "travel_mode": "TRANSIT"}, {"distance": {"text": "77 m", "value": 77}, "duration": {"text": "1 min", "value": 67}, "end_location": {"lat": 40.4181736, "lng": -3.6980728}, "html_instructions": "Walk to C. Alcal\u00e1, 30, Centro, 28014 Madrid, Spain", "polyline": {"points": "ueuuFpiqUFTJP@FNI@?RCGSEQCYEU"}, "start_location": {"lat": 40.4183528, "lng": -3.6983259}, "steps": [{"distance": {"text": "27 m", "value": 27}, "duration": {"text": "1 min", "value": 27}, "end_location": {"lat": 40.4182374, "lng": -3.6985653}, "html_instructions": "Head <b>west</b> on <b>C. Alcal\u00e1</b> toward <b>C. de Cedaceros</b>", "polyline": {"points": "ueuuFpiqUFTJP@F"}, "start_location": {"lat": 40.4183528, "lng": -3.6983259}, "travel_mode": "WALKING"}, {"distance": {"text": "50 m", "value": 50}, "duration": {"text": "1 min", "value": 40}, "end_location": {"lat": 40.4181736, "lng": -3.6980728}, "html_instructions": "Cross the road<div style=\"font-size:0.9em\">Destination will be on the right</div>", "polyline": {"points": "_euuF`kqUNI@?RCGSEQCYEU"}, "start_location": {"lat": 40.4182374, "lng": -3.6985653}, "travel_mode": "WALKING"}], "travel_mode": "WALKING"}], "traffic_speed_entry": [], "via_waypoint": []}], "overview_polyline": {"points": "cstuFbsnUDlEa@JkARM@IFILMCI?y@Rs@lB]HeAFuAV_AZ}@b@mAl@SACDOJaAf@EJG?QEGNOd@A@SHADIT[QSDi@N_@VALS`@Oh@CAKCAFEf@D@LFBVRj@HJUc@VQBHHNNL{BdIoAjEyAi@cC{@}B{@i@GCr@^LlA`@bBn@j@P|FrBr@VFBPVTL|@`@JHCHEV?XB`@VTHHj@\\h@pEj@zEPlAb@zB`@vBb@xBFZ@HQHJXLXPIRCGSIk@EU"}, "summary": "", "warnings": ["Walking directions are in beta. Use caution \u2013 This route may be missing sidewalks or pedestrian paths."], "waypoint_order": []}], "status": "OK"}