{"geocoded_waypoints": [{"geocoder_status": "OK", "place_id": "ChIJzVtEVjkpQg0RlErUc4WHrks", "types": ["bar", "establishment", "food", "point_of_interest", "restaurant"]}, {"geocoder_status": "OK", "place_id": "ChIJ1YPU7X4oQg0RBTc9XzXndGM", "types": ["establishment", "food", "point_of_interest", "restaurant"]}, {"geocoder_status": "OK", "place_id": "ChIJUWdLpIAoQg0R15XncVza8Iw", "types": ["doctor", "establishment", "health", "point_of_interest", "store"]}, {"geocoder_status": "OK", "place_id": "ChIJ__2qS38oQg0RpxZp_smdbY8", "types": ["premise", "street_address"]}, {"geocoder_status": "OK", "place_id": "ChIJn2qnFBAnQg0RCEHvevqUyXk", "types": ["establishment", "home_goods_store", "point_of_interest", "store"]}, {"geocoder_status": "OK", "place_id": "ChIJrdZ96gQnQg0RqcujTd8-sNw", "types": ["establishment", "point_of_interest"]}, {"geocoder_status": "OK", "place_id": "ChIJ2UOAHtYnQg0RTFOUQ1_-oYI", "types": ["street_address", "subpremise"]}], "routes": [{"bounds": {"northeast": {"lat": 40.4173549, "lng": -3.7029786}, "southwest": {"lat": 40.4078012, "lng": -3.710582899999999}}, "copyrights": "Powered by Google, \u00a92026 Google", "legs": [{"distance": {"text": "0.3 km", "value": 277}, "duration": {"text": "4 mins", "value": 222}, "end_address": "C. Mayor, 13, Centro, 28013 Madrid, Spain", "end_location": {"lat": 40.4163131, "lng": -3.7063029}, "start_address": "Pl. de San Miguel, S/N, Centro, 28005 Madrid, Spain", "start_location": {"lat": 40.4154913, "lng": -3.7089389}, "steps": [{"distance": {"text": "17 m", "value": 17}, "duration": {"text": "1 min", "value": 14}, "end_location": {"lat": 40.4155869, "lng": -3.7087375}, "html_instructions": "Head <b>east</b> on <b>Pl. de San Miguel</b> toward <b>Tr.\u00aa de Bringas</b>", "polyline": {"points": "ystuFzksUG]KI"}, "start_location": {"lat": 40.4154913, "lng": -3.7089389}, "travel_mode": "WALKING"}, {"distance": {"text": "39 m", "value": 39}, "duration": {"text": "1 min", "value": 36}, "end_location": {"lat": 40.415873, "lng": -3.7087783}, "html_instructions": "Turn <b>left</b> onto <b>Tr.\u00aa de Bringas</b>", "maneuver": "turn-left", "polyline": {"points": "mttuFrjsUc@DA?Q@"}, "start_location": {"lat": 40.4155869, "lng": -3.7087375}, "travel_mode": "WALKING"}, {"distance": {"text": "0.2 km", "value": 221}, "duration": {"text": "3 mins", "value": 172}, "end_location": {"lat": 40.4163131, "lng": -3.7063029}, "html_instructions": "Turn <b>right</b> onto <b>C. Mayor</b><div style=\"font-size:0.9em\">Destination will be on the right</div>", "maneuver": "turn-right", "polyline": {"points": "evtuFzjsUAIMe@EUGa@Ge@AAEW?KC[AO?MCUEk@COCWEQ@I?IEk@AQAQCa@"}, "start_location": {"lat": 40.415873, "lng": -3.7087783}, "travel_mode": "WALKING"}], "traffic_speed_entry": [], "via_waypoint": []}, {"distance": {"text": "0.3 km", "value": 348}, "duration": {"text": "5 mins", "value": 288}, "end_address": "Prta del Sol, 14, Centro, 28013 Madrid, Spain", "end_location": {"lat": 40.4173549, "lng": -3.7029786}, "start_address": "C. Mayor, 13, Centro, 28013 Madrid, Spain", "start_location": {"lat": 40.4163131, "lng": -3.7063029}, "steps": [{"distance": {"text": "0.2 km", "value": 170}, "duration": {"text": "2 mins", "value": 137}, "end_location": {"lat": 40.4166199, "lng": -3.7043412}, "html_instructions": "Head <b>east</b> on <b>C. Mayor</b> toward <b>Tr.\u00aa del Arenal</b>", "polyline": {"points": "}xtuFj{rUGw@@[EWO{BB?B?H@D@CICI]AE}@AOAOAMAIEW"}, "start_location": {"lat": 40.4163131, "lng": -3.7063029}, "travel_mode": "WALKING"}, {"distance": {"text": "0.1 km", "value": 108}, "duration": {"text": "2 mins", "value": 90}, "end_location": {"lat": 40.4167434, "lng": -3.7030733}, "html_instructions": "Continue onto <b>Prta del Sol</b>", "polyline": {"points": "{ztuFborUAOCSCo@AKAMC}@AQAIAQ?K?E?Q"}, "start_location": {"lat": 40.4166199, "lng": -3.7043412}, "travel_mode": "WALKING"}, {"distance": {"text": "48 m", "value": 48}, "duration": {"text": "1 min", "value": 40}, "end_location": {"lat": 40.4171742, "lng": -3.7030744}, "html_instructions": "Turn <b>left</b> to stay on <b>Prta del Sol</b>", "maneuver": "turn-left", "polyline": {"points": "s{tuFdgrUuA?"}, "start_location": {"lat": 40.4167434, "lng": -3.7030733}, "travel_mode": "WALKING"}, {"distance": {"text": "22 m", "value": 22}, "duration": {"text": "1 min", "value": 21}, "end_location": {"lat": 40.4173549, "lng": -3.7029786}, "html_instructions": "Continue onto <b>C. de la Montera</b><div style=\"font-size:0.9em\">Destination will be on the right</div>", "polyline": {"points": "i~tuFdgrUc@Q"}, "start_location": {"lat": 40.4171742, "lng": -3.7030744}, "travel_mode": "WALKING"}], "traffic_speed_entry": [], "via_waypoint": []}, {"distance": {"text": "0.7 km", "value": 734}, "duration": {"text": "10 mins", "value": 589}, "end_address": "C. de Latoneros, 5, Centro, 28005 Madrid, Spain", "end_location": {"lat": 40.41381459999999, "lng": -3.7075599}, "start_address": "Prta del Sol, 14, Centro, 28013 Madrid, Spain", "start_location": {"lat": 40.4173549, "lng": -3.7029786}, "steps": [{"distance": {"text": "22 m", "value": 22}, "duration": {"text": "1 min", "value": 15}, "end_location": {"lat": 40.4171742, "lng": -3.7030744}, "html_instructions": "Head <b>south</b> on <b>C. de la Montera</b> toward <b>Prta del Sol</b>", "polyline": {"points": "m_uuFrfrUb@P"}, "start_location": {"lat": 40.4173549, "lng": -3.7029786}, "travel_mode": "WALKING"}, {"distance": {"text": "48 m", "value": 48}, "duration": {"text": "1 min", "value": 37}, "end_location": {"lat": 40.4167434, "lng": -3.7030733}, "html_instructions": "Slight <b>left</b> onto <b>Prta del Sol</b>", "maneuver": "turn-slight-left", "polyline": {"points": "i~tuFdgrUtA?"}, "start_location": {"lat": 40.4171742, "lng": -3.7030744}, "travel_mode": "WALKING"}, {"distance": {"text": "0.1 km", "value": 108}, "duration": {"text": "1 min", "value": 81}, "end_location": {"lat": 40.4166199, "lng": -3.7043412}, "html_instructions": "Turn <b>right</b> to stay on <b>Prta del Sol</b>", "maneuver": "turn-right", "polyline": {"points": "s{tuFdgrU?P?D?J@P@H@PB|@@L@JBn@BR@N"}, "start_location": {"lat": 40.4167434, "lng": -3.7030733}, "travel_mode": "WALKING"}, {"distance": {"text": "0.3 km", "value": 290}, "duration": {"text": "4 mins", "value": 237}, "end_location": {"lat": 40.416198, "lng": -3.707718}, "html_instructions": "Continue onto <b>C. Mayor</b>", "polyline": {"points": "{ztuFborUDV@H@L@N@ND|@CDPjC@PB^HzABP@NDj@@L@L?HD`@Dr@BR@P?D"}, "start_location": {"lat": 40.4166199, "lng": -3.7043412}, "travel_mode": "WALKING"}, {"distance": {"text": "58 m", "value": 58}, "duration": {"text": "1 min", "value": 60}, "end_location": {"lat": 40.4156431, "lng": -3.7076604}, "html_instructions": "Turn <b>left</b> toward <b>C. de Toledo</b>", "maneuver": "turn-left", "polyline": {"points": "gxtuFfdsUNCFCPA@?N?RAH?B?P?"}, "start_location": {"lat": 40.416198, "lng": -3.707718}, "travel_mode": "WALKING"}, {"distance": {"text": "2 m", "value": 2}, "duration": {"text": "1 min", "value": 2}, "end_location": {"lat": 40.4156422, "lng": -3.7076815}, "html_instructions": "Turn <b>right</b> toward <b>C. de Toledo</b>", "maneuver": "turn-right", "polyline": {"points": "wttuFzcsU?B"}, "start_location": {"lat": 40.4156431, "lng": -3.7076604}, "travel_mode": "WALKING"}, {"distance": {"text": "0.2 km", "value": 206}, "duration": {"text": "3 mins", "value": 157}, "end_location": {"lat": 40.41381459999999, "lng": -3.7075599}, "html_instructions": "Turn <b>left</b> onto <b>C. de Toledo</b><div style=\"font-size:0.9em\">Destination will be on the right</div>", "maneuver": "turn-left", "polyline": {"points": "wttuF~csUNAXANAVAP@NAF?D?F?DAZC^EBA^EBARCDF@BB@B@B?D@J?F@NCTCPA"}, "start_location": {"lat": 40.4156422, "lng": -3.7076815}, "travel_mode": "WALKING"}], "traffic_speed_entry": [], "via_waypoint": []}, {"distance": {"text": "0.7 km", "value": 681}, "duration": {"text": "9 mins", "value": 546}, "end_address": "C/ de la Ribera de Curtidores, 29, Centro, 28005 Madrid, Spain", "end_location": {"lat": 40.4078012, "lng": -3.7072753}, "start_address": "C. de Latoneros, 5, Centro, 28005 Madrid, Spain", "start_location": {"lat": 40.41381459999999, "lng": -3.7075599}, "steps": [{"distance": {"text": "0.1 km", "value": 125}, "duration": {"text": "2 mins", "value": 102}, "end_location": {"lat": 40.4126847, "lng": -3.7074932}, "html_instructions": "Head <b>south</b> on <b>C. de Toledo</b> toward <b>Cl. de Tintoreros</b>", "polyline": {"points": "iituFfcsU@?BAD?VE?B@D?D?B@?F@@??E?GAGDCAYRANBBQPFAHPBhAJJBH@B?"}, "start_location": {"lat": 40.41381459999999, "lng": -3.7075599}, "travel_mode": "WALKING"}, {"distance": {"text": "0.1 km", "value": 137}, "duration": {"text": "2 mins", "value": 117}, "end_location": {"lat": 40.4115572, "lng": -3.7071563}, "html_instructions": "Slight <b>left</b> onto <b>C. de los Estudios</b>", "maneuver": "turn-slight-left", "polyline": {"points": "gbtuFxbsUBAREHALEB?FAHCHAD?NELCh@MVC`@CJ?CI"}, "start_location": {"lat": 40.4126847, "lng": -3.7074932}, "travel_mode": "WALKING"}, {"distance": {"text": "73 m", "value": 73}, "duration": {"text": "1 min", "value": 68}, "end_location": {"lat": 40.4108156, "lng": -3.7071758}, "html_instructions": "Continue onto <b>Pl. de Cascorro</b>", "polyline": {"points": "g{suFv`sUFCDA@HFA?H@J?LXAREH?FIBFBDNK@CFADADADCDC"}, "start_location": {"lat": 40.4115572, "lng": -3.7071563}, "travel_mode": "WALKING"}, {"distance": {"text": "0.1 km", "value": 121}, "duration": {"text": "1 min", "value": 87}, "end_location": {"lat": 40.4099447, "lng": -3.7071813}, "html_instructions": "Slight <b>right</b> to stay on <b>Pl. de Cascorro</b>", "maneuver": "turn-slight-right", "polyline": {"points": "svsuFz`sU^FJ?LAh@Eb@IJCH?DBDDDB"}, "start_location": {"lat": 40.4108156, "lng": -3.7071758}, "travel_mode": "WALKING"}, {"distance": {"text": "0.2 km", "value": 225}, "duration": {"text": "3 mins", "value": 172}, "end_location": {"lat": 40.4078012, "lng": -3.7072753}, "html_instructions": "Continue onto <b>C/<wbr/> de la Ribera de Curtidores</b><div style=\"font-size:0.9em\">Destination will be on the left</div>", "polyline": {"points": "cqsuFz`sUVBJ@T?N?b@@H?V?R??AF??BhA?^@@?D??BfA@\\@?CJ??DZA"}, "start_location": {"lat": 40.4099447, "lng": -3.7071813}, "travel_mode": "WALKING"}], "traffic_speed_entry": [], "via_waypoint": []}, {"distance": {"text": "0.7 km", "value": 668}, "duration": {"text": "10 mins", "value": 621}, "end_address": "C. de la Cava Baja, 47, Centro, 28005 Madrid, Spain", "end_location": {"lat": 40.4116811, "lng": -3.7105412}, "start_address": "C/ de la Ribera de Curtidores, 29, Centro, 28005 Madrid, Spain", "start_location": {"lat": 40.4078012, "lng": -3.7072753}, "steps": [{"distance": {"text": "0.2 km", "value": 243}, "duration": {"text": "4 mins", "value": 263}, "end_location": {"lat": 40.40998159999999, "lng": -3.707303}, "html_instructions": "Head <b>north</b> on <b>C/<wbr/> de la Ribera de Curtidores</b> toward <b>C. de Rodas</b>", "polyline": {"points": "wcsuFnasU[@?EC?G??B]AgAA?CG?_@AiA??CG??@S?W?I?c@AO?U?CAYFEBGF"}, "start_location": {"lat": 40.4078012, "lng": -3.7072753}, "travel_mode": "WALKING"}, {"distance": {"text": "88 m", "value": 88}, "duration": {"text": "1 min", "value": 81}, "end_location": {"lat": 40.4107171, "lng": -3.7073228}, "html_instructions": "Continue onto <b>Pl. de Cascorro</b>", "polyline": {"points": "kqsuFrasUg@@O?M?M?w@BGA"}, "start_location": {"lat": 40.40998159999999, "lng": -3.707303}, "travel_mode": "WALKING"}, {"distance": {"text": "0.1 km", "value": 102}, "duration": {"text": "1 min", "value": 80}, "end_location": {"lat": 40.4111467, "lng": -3.7084029}, "html_instructions": "Turn <b>left</b> onto <b>C. de las Maldonadas</b>", "maneuver": "turn-left", "polyline": {"points": "_vsuFvasU?R?DE?Ux@Uv@GZCBK\\GFCD"}, "start_location": {"lat": 40.4107171, "lng": -3.7073228}, "travel_mode": "WALKING"}, {"distance": {"text": "11 m", "value": 11}, "duration": {"text": "1 min", "value": 9}, "end_location": {"lat": 40.4111218, "lng": -3.7085974}, "html_instructions": "Turn <b>left</b> onto <b>C. de Toledo</b>", "maneuver": "turn-left", "polyline": {"points": "uxsuFnhsUJLDBABIP"}, "start_location": {"lat": 40.4111467, "lng": -3.7084029}, "travel_mode": "WALKING"}, {"distance": {"text": "18 m", "value": 18}, "duration": {"text": "1 min", "value": 24}, "end_location": {"lat": 40.4113404, "lng": -3.708652599999999}, "html_instructions": "Cross the road", "polyline": {"points": "oxsuFvisUEEEGC@CXC?MAEA"}, "start_location": {"lat": 40.4111218, "lng": -3.7085974}, "travel_mode": "WALKING"}, {"distance": {"text": "0.2 km", "value": 187}, "duration": {"text": "2 mins", "value": 147}, "end_location": {"lat": 40.4115323, "lng": -3.7104939}, "html_instructions": "Turn <b>left</b> onto <b>Pl. de la Cebada</b>", "maneuver": "turn-left", "polyline": {"points": "{ysuF`jsU?DCTC`@Cl@?BCf@APC\\@RAPEXAFATAL?XAN?@AN"}, "start_location": {"lat": 40.4113404, "lng": -3.708652599999999}, "travel_mode": "WALKING"}, {"distance": {"text": "19 m", "value": 19}, "duration": {"text": "1 min", "value": 17}, "end_location": {"lat": 40.4116811, "lng": -3.7105412}, "html_instructions": "Turn <b>right</b> onto <b>Pl. del Humilladero</b>/<wbr/><b>Pl. de Prta de Moros</b><div style=\"font-size:0.9em\">Destination will be on the right</div>", "maneuver": "turn-right", "polyline": {"points": "a{suFpusUK?KDEB"}, "start_location": {"lat": 40.4115323, "lng": -3.7104939}, "travel_mode": "WALKING"}], "traffic_speed_entry": [], "via_waypoint": []}, {"distance": {"text": "0.2 km", "value": 173}, "duration": {"text": "2 mins", "value": 134}, "end_address": "C. de la Cava Baja, 19, Centro, 28005 Madrid, Spain", "end_location": {"lat": 40.4124993, "lng": -3.7089992}, "start_address": "C. de la Cava Baja, 47, Centro, 28005 Madrid, Spain", "start_location": {"lat": 40.4116811, "lng": -3.7105412}, "steps": [{"distance": {"text": "10 m", "value": 10}, "duration": {"text": "1 min", "value": 8}, "end_location": {"lat": 40.4117337, "lng": -3.710582899999999}, "html_instructions": "Head <b>northwest</b> on <b>Pl. del Humilladero</b> toward <b>C. de la Cava Baja</b>", "polyline": {"points": "_|suFzusUIF"}, "start_location": {"lat": 40.4116811, "lng": -3.7105412}, "travel_mode": "WALKING"}, {"distance": {"text": "0.2 km", "value": 163}, "duration": {"text": "2 mins", "value": 126}, "end_location": {"lat": 40.4124993, "lng": -3.7089992}, "html_instructions": "Turn <b>right</b> onto <b>C. de la Cava Baja</b><div style=\"font-size:0.9em\">Destination will be on the right</div>", "maneuver": "turn-right", "polyline": {"points": "i|suFbvsUIYCKY}@KYQg@Mc@CEGQIQWe@Wa@"}, "start_location": {"lat": 40.4117337, "lng": -3.710582899999999}, "travel_mode": "WALKING"}], "traffic_speed_entry": [], "via_waypoint": []}], "overview_polyline": {"points": "ystuFzksUG]KIe@DQ@AIS{@WaBEeAQiBEQ@IEu@O}B@[EWO{BB?L@D@CICI]AGmAK_AK_BK}CuA?c@Qb@PtA??V@\\HfBJ~AJ~@FlACDPjCDp@LlBJvANrB@VVGv@CL?P??Bh@Cf@Cn@?dCYNN\\Bx@IHAVE?B@J@BH@?MAGDCAYRANBBQPFAHzANTDd@IpAW`AQl@CCIFCDA@HFA?H@Xl@GH?FIFLPOLCJEDC^FXAlAOTCJHDBVB`@@tA@ZA?BhA?^@F??BfA@\\AJ??DZA[@CEGBeBC?CG?_@AiA??CG@yAAe@?]DMJw@@{A@?XE?Ux@]rAO`@KLPPKTKMC@CXQAEA?DGv@IjBAp@Gj@C\\Af@APANK?QHIFIY]iA]aAc@mAo@gA"}, "summary": "C. Mayor", "warnings": ["Walking directions are in beta. Use caution \u2013 This route may be missing sidewalks or pedestrian paths."], "waypoint_order": [2, 3, 4, 1, 0]}], "status": "OK"}