{"geocoded_waypoints": [{"geocoder_status": "OK", "place_id": "ChIJe7vKMf9YwokRIMYfDz7iF9o", "types": ["establishment", "point_of_interest", "tourist_attraction"]}, {"geocoder_status": "OK", "place_id": "ChIJ1xHllwFZwokRNcMmYq5Cvog", "types": ["street_address", "subpremise"]}], "routes": [{"bounds": {"northeast": {"lat": 40.7593671, "lng": -73.97737819999999}, "southwest": {"lat": 40.7526332, "lng": -73.9812427}}, "copyrights": "Powered by Google, \u00a92026 Google", "fare": {"currency": "USD", "text": "$2.90", "value": 2.9}, "legs": [{"arrival_time": {"text": "9:42\u202fAM", "time_zone": "America/New_York", "value": 1767364926}, "departure_time": {"text": "9:30\u202fAM", "time_zone": "America/New_York", "value": 1767364200}, "distance": {"text": "0.7 mi", "value": 1150}, "duration": {"text": "12 mins", "value": 726}, "end_address": "57 E 42nd St, New York, NY 10017, USA", "end_location": {"lat": 40.7526332, "lng": -73.9785514}, "start_address": "30 Rockefeller Plaza, New York, NY 10112, USA", "start_location": {"lat": 40.7593671, "lng": -73.9793506}, "steps": [{"distance": {"text": "0.2 mi", "value": 270}, "duration": {"text": "4 mins", "value": 222}, "end_location": {"lat": 40.7580661, "lng": -73.97773769999999}, "html_instructions": "Walk to 5 Av/W 49 St", "polyline": {"points": "aywwF|apbMBIJSLa@La@FSL_@BIFUJ]Lc@HQBKFQDQFQNc@FS@ERLLJZHFNTN@B"}, "start_location": {"lat": 40.7593671, "lng": -73.9793506}, "steps": [{"distance": {"text": "0.1 mi", "value": 202}, "duration": {"text": "3 mins", "value": 168}, "end_location": {"lat": 40.7585378, "lng": -73.97737819999999}, "html_instructions": "Head <b>southeast</b> on <b>W 50th St</b> toward <b>Rockefeller Plaza</b>", "polyline": {"points": "aywwF|apbMBIJSLa@La@FSL_@BIFUJ]Lc@HQBKFQDQFQNc@FS@E"}, "start_location": {"lat": 40.7593671, "lng": -73.9793506}, "travel_mode": "WALKING"}, {"distance": {"text": "223 ft", "value": 68}, "duration": {"text": "1 min", "value": 54}, "end_location": {"lat": 40.7580661, "lng": -73.97773769999999}, "html_instructions": "Turn <b>right</b> onto <b>5th Ave</b><div style=\"font-size:0.9em\">Destination will be on the right</div>", "maneuver": "turn-right", "polyline": {"points": "{swwFruobMRLLJZHFNTN@B"}, "start_location": {"lat": 40.7585378, "lng": -73.97737819999999}, "travel_mode": "WALKING"}], "travel_mode": "WALKING"}, {"distance": {"text": "0.4 mi", "value": 623}, "duration": {"text": "5 mins", "value": 293}, "end_location": {"lat": 40.753193, "lng": -73.981155}, "html_instructions": "Bus towards East Village 8 St via 5 Ave", "polyline": {"points": "upwwFnwobMDMNHNJvA~@TNLJxA~@PLPJNJ~@l@LHNJj@^JFTNZRRLPJHFv@f@JFFD?@RNPJJH@?VPXRTNTNFDDB@@nAx@DB^VLFJH@@DBRLFDAH"}, "start_location": {"lat": 40.75803, "lng": -73.977676}, "transit_details": {"arrival_stop": {"location": {"lat": 40.753193, "lng": -73.981155}, "name": "5 Av/W 41 St"}, "arrival_time": {"text": "9:37\u202fAM", "time_zone": "America/New_York", "value": 1767364678}, "departure_stop": {"location": {"lat": 40.75803, "lng": -73.977676}, "name": "5 Av/W 49 St"}, "departure_time": {"text": "9:33\u202fAM", "time_zone": "America/New_York", "value": 1767364423}, "headsign": "East Village 8 St via 5 Ave", "line": {"agencies": [{"name": "MTA", "url": "https://new.mta.info/"}], "color": "#1d59b3", "name": "Harlem - East Village", "short_name": "M1", "text_color": "#ffffff", "vehicle": {"icon": "//maps.gstatic.com/mapfiles/transit/iw2/6/bus2.png", "name": "Bus", "type": "BUS"}}, "num_stops": 3}, "travel_mode": "TRANSIT"}, {"distance": {"text": "0.2 mi", "value": 257}, "duration": {"text": "4 mins", "value": 224}, "end_location": {"lat": 40.7526332, "lng": -73.9785514}, "html_instructions": "Walk to 57 E 42nd St, New York, NY 10017, USA", "polyline": {"points": "urvwFvmpbMA?EEKGOKIE?@CC[S?ACCTo@@@FOBMJYDOJa@FSVu@Le@Rm@@CBIAA@CN_@@GDBBKDIDMFWFc@FO"}, "start_location": {"lat": 40.7532325, "lng": -73.9812427}, "steps": [{"distance": {"text": "128 ft", "value": 39}, "duration": {"text": "1 min", "value": 30}, "end_location": {"lat": 40.7536351, "lng": -73.98094309999999}, "html_instructions": "Head <b>northeast</b> on <b>5th Ave</b> toward <b>E 42nd St</b>", "polyline": {"points": "urvwFvmpbMA?EEKGOKIE?@CC[S?ACC"}, "start_location": {"lat": 40.7532325, "lng": -73.9812427}, "travel_mode": "WALKING"}, {"distance": {"text": "0.1 mi", "value": 218}, "duration": {"text": "3 mins", "value": 194}, "end_location": {"lat": 40.7526332, "lng": -73.9785514}, "html_instructions": "Turn <b>right</b> onto <b>E 42nd St</b><div style=\"font-size:0.9em\">Destination will be on the left</div>", "maneuver": "turn-right", "polyline": {"points": "guvwFzkpbMTo@@@FOBMJYDOJa@FSVu@Le@Rm@@CBIAA@CN_@@GDBBKDIDMFWFc@FO"}, "start_location": {"lat": 40.7536351, "lng": -73.98094309999999}, "travel_mode": "WALKING"}], "travel_mode": "WALKING"}], "traffic_speed_entry": [], "via_waypoint": []}], "overview_polyline": {"points": "aywwF|apbMj@aB`@sAlAyDHY`@XZHFNVRLY^TtEzChEpClDzBdHvEf@\\FDIXc@YIC_@WCETo@@@J]Pi@x@qCTq@@KPc@@GDBHULe@Ns@"}, "summary": "", "warnings": ["Walking directions are in beta. Use caution \u2013 This route may be missing sidewalks or pedestrian paths."], "waypoint_order": []}], "status": "OK"}