{"geocoded_waypoints": [{"geocoder_status": "OK", "place_id": "ChIJvSa3ILhZwokRiwklUdH5lzs", "types": ["premise", "street_address"]}, {"geocoder_status": "OK", "place_id": "ChIJ5bQPhMdZwokRxbH5sdWNyeE", "types": ["establishment", "point_of_interest"]}], "routes": [{"bounds": {"northeast": {"lat": 40.7480509, "lng": -74.0015208}, "southwest": {"lat": 40.739434, "lng": -74.0088976}}, "copyrights": "Powered by Google, \u00a92026 Google", "fare": {"currency": "USD", "text": "$2.90", "value": 2.9}, "legs": [{"arrival_time": {"text": "9:50\u202fAM", "time_zone": "America/New_York", "value": 1767365446}, "departure_time": {"text": "9:37\u202fAM", "time_zone": "America/New_York", "value": 1767364642}, "distance": {"text": "0.9 mi", "value": 1466}, "duration": {"text": "13 mins", "value": 804}, "end_address": "820 Washington St, New York, NY 10014, USA", "end_location": {"lat": 40.739434, "lng": -74.0088976}, "start_address": "519 W 23rd St, New York, NY 10011, USA", "start_location": {"lat": 40.7480509, "lng": -74.00476239999999}, "steps": [{"distance": {"text": "0.2 mi", "value": 327}, "duration": {"text": "5 mins", "value": 287}, "end_location": {"lat": 40.7464754, "lng": -74.0015208}, "html_instructions": "Walk to 9 Av/W 23 St", "polyline": {"points": "iruwFv`ubMLa@^eAAARo@?@@EBBVRBBh@cB|@sCxAuE?CPe@?ABK"}, "start_location": {"lat": 40.7480509, "lng": -74.00476239999999}, "steps": [{"distance": {"text": "0.2 mi", "value": 327}, "duration": {"text": "5 mins", "value": 287}, "end_location": {"lat": 40.7464754, "lng": -74.0015208}, "html_instructions": "Head <b>southeast</b> on <b>W 23rd St</b> toward <b>10th Ave</b><div style=\"font-size:0.9em\">Destination will be on the right</div>", "polyline": {"points": "iruwFv`ubMLa@^eAAARo@?@@EBBVRBBh@cB|@sCxAuE?CPe@?ABK"}, "start_location": {"lat": 40.7480509, "lng": -74.00476239999999}, "travel_mode": "WALKING"}], "travel_mode": "WALKING"}, {"distance": {"text": "0.5 mi", "value": 760}, "duration": {"text": "4 mins", "value": 240}, "end_location": {"lat": 40.740189, "lng": -74.005341}, "html_instructions": "Bus towards West Village Abingdon Sq via 9 Ave", "polyline": {"points": "cguwFfmtbMDOf@ZVPLHFBFDlAx@FDLHFDPNDBLJLHPLB@VRNJVNVPp@`@RJb@XXRv@f@PLLHh@ZRN@?TNTN^VLHDB^TLFJFHD^PHD`@VRLJFJHZRJFJDD@^B@?XDVD`@HLBRBH@B?t@HAH"}, "start_location": {"lat": 40.746265, "lng": -74.00164}, "transit_details": {"arrival_stop": {"location": {"lat": 40.740189, "lng": -74.005341}, "name": "Hudson Street & West 13 Street"}, "arrival_time": {"text": "9:45\u202fAM", "time_zone": "America/New_York", "value": 1767365143}, "departure_stop": {"location": {"lat": 40.746265, "lng": -74.00164}, "name": "9 Av/W 23 St"}, "departure_time": {"text": "9:42\u202fAM", "time_zone": "America/New_York", "value": 1767364930}, "headsign": "West Village Abingdon Sq via 9 Ave", "line": {"agencies": [{"name": "MTA", "url": "https://new.mta.info/"}], "color": "#1d59b3", "name": "Riverbank Park & Harlem - West Village", "short_name": "M11", "text_color": "#ffffff", "vehicle": {"icon": "//maps.gstatic.com/mapfiles/transit/iw2/6/bus2.png", "name": "Bus", "type": "BUS"}}, "num_stops": 3}, "travel_mode": "TRANSIT"}, {"distance": {"text": "0.2 mi", "value": 379}, "duration": {"text": "5 mins", "value": 303}, "end_location": {"lat": 40.739434, "lng": -74.0088976}, "html_instructions": "Walk to 820 Washington St, New York, NY 10014, USA", "polyline": {"points": "catwFtdubMF?AD@?Z@@CP@j@FN@X@?d@Bb@?bA@f@G^@^?p@?H?dC@n@?BA??DBb@@L?L?dA@r@"}, "start_location": {"lat": 40.7401833, "lng": -74.0053868}, "steps": [{"distance": {"text": "279 ft", "value": 85}, "duration": {"text": "1 min", "value": 71}, "end_location": {"lat": 40.7394699, "lng": -74.0054842}, "html_instructions": "Head <b>south</b> on <b>Hudson St</b> toward <b>W 13th St</b>", "polyline": {"points": "catwFtdubMF?AD@?Z@@CP@j@FN@X@"}, "start_location": {"lat": 40.7401833, "lng": -74.0053868}, "travel_mode": "WALKING"}, {"distance": {"text": "0.2 mi", "value": 294}, "duration": {"text": "4 mins", "value": 232}, "end_location": {"lat": 40.739434, "lng": -74.0088976}, "html_instructions": "Turn <b>right</b> onto <b>Gansevoort St</b><div style=\"font-size:0.9em\">Destination will be on the right</div>", "maneuver": "turn-right", "polyline": {"points": "u|swFfeubM?d@Bb@?bA@f@G^@^?p@?H?dC@n@?BA??DBb@@L?L?dA@r@"}, "start_location": {"lat": 40.7394699, "lng": -74.0054842}, "travel_mode": "WALKING"}], "travel_mode": "WALKING"}], "traffic_speed_entry": [], "via_waypoint": []}], "overview_polyline": {"points": "iruwFv`ubMl@gBPq@@CZVBBh@cBvCiJTw@j@VDO~@l@jBlAbBlAdEjCfEnCbCzAtAt@fAr@VLd@DtATn@Ht@HAH@HF?AD@?Z@@C|@Hh@BBhA@jBG^@^?z@?xDDv@@fC"}, "summary": "", "warnings": ["Walking directions are in beta. Use caution \u2013 This route may be missing sidewalks or pedestrian paths."], "waypoint_order": []}], "status": "OK"}