{"geocoded_waypoints": [{"geocoder_status": "OK", "place_id": "ChIJ4wD5qVVYwokRpDc1jLdunL4", "types": ["art_gallery", "establishment", "point_of_interest"]}, {"geocoder_status": "OK", "place_id": "ChIJK9wBJ7pZwokR6EvkjpVfBas", "types": ["street_address"]}], "routes": [{"bounds": {"northeast": {"lat": 40.7597764, "lng": -73.978692}, "southwest": {"lat": 40.75679239999999, "lng": -73.9855053}}, "copyrights": "Powered by Google, \u00a92026 Google", "fare": {"currency": "USD", "text": "$2.90", "value": 2.9}, "legs": [{"arrival_time": {"text": "9:40\u202fAM", "time_zone": "America/New_York", "value": 1767364814}, "departure_time": {"text": "9:30\u202fAM", "time_zone": "America/New_York", "value": 1767364240}, "distance": {"text": "0.6 mi", "value": 899}, "duration": {"text": "10 mins", "value": 574}, "end_address": "35 Rockefeller Plaza, New York, NY 10111, USA", "end_location": {"lat": 40.7587131, "lng": -73.97873129999999}, "start_address": "211 57th Street (Between 7th and, Broadway, New York, NY 10036, USA", "start_location": {"lat": 40.7580163, "lng": -73.9855053}, "steps": [{"distance": {"text": "0.2 mi", "value": 303}, "duration": {"text": "4 mins", "value": 263}, "end_location": {"lat": 40.7569598, "lng": -73.98241879999999}, "html_instructions": "Walk to 6 Ave/W 45 St", "polyline": {"points": "spwwFlhqbMNg@@A?Ap@wBDInBgGBIFWV{@DIAABKNe@IEWQ"}, "start_location": {"lat": 40.7580163, "lng": -73.9855053}, "steps": [{"distance": {"text": "0.2 mi", "value": 273}, "duration": {"text": "4 mins", "value": 230}, "end_location": {"lat": 40.75679239999999, "lng": -73.9825422}, "html_instructions": "Head <b>southeast</b> on <b>W 45th St</b> toward <b>6th Ave</b>/<wbr/><b>Ave of the Americas</b>", "polyline": {"points": "spwwFlhqbMNg@@A?Ap@wBDInBgGBIFWV{@DIAABKNe@"}, "start_location": {"lat": 40.7580163, "lng": -73.9855053}, "travel_mode": "WALKING"}, {"distance": {"text": "98 ft", "value": 30}, "duration": {"text": "1 min", "value": 33}, "end_location": {"lat": 40.7569598, "lng": -73.98241879999999}, "html_instructions": "Turn <b>left</b> onto <b>6th Ave</b>/<wbr/><b>Ave of the Americas</b><div style=\"font-size:0.9em\">Destination will be on the right</div>", "maneuver": "turn-left", "polyline": {"points": "}hwwFzupbMIEWQ"}, "start_location": {"lat": 40.75679239999999, "lng": -73.9825422}, "travel_mode": "WALKING"}], "travel_mode": "WALKING"}, {"distance": {"text": "0.2 mi", "value": 375}, "duration": {"text": "3 mins", "value": 161}, "end_location": {"lat": 40.75972609999999, "lng": -73.9804015}, "html_instructions": "Bus towards Harlem 147 St via 6 Ave via Amsterdam Ave", "polyline": {"points": "}iwwF`upbMKXm@a@CCA?CCSMUQIE_@WCAe@[WQQKg@]a@Y]SQM_@WIGa@U?AMIOKOIAAk@_@SMKGGEHW"}, "start_location": {"lat": 40.7569537, "lng": -73.9824126}, "transit_details": {"arrival_stop": {"location": {"lat": 40.75972609999999, "lng": -73.9804015}, "name": "Ave of The Americas/W 50 St"}, "arrival_time": {"text": "9:37\u202fAM", "time_zone": "America/New_York", "value": 1767364630}, "departure_stop": {"location": {"lat": 40.7569537, "lng": -73.9824126}, "name": "6 Ave/W 45 St"}, "departure_time": {"text": "9:35\u202fAM", "time_zone": "America/New_York", "value": 1767364504}, "headsign": "Harlem 147 St via 6 Ave via Amsterdam Ave", "line": {"agencies": [{"name": "MTA", "url": "https://new.mta.info/"}], "color": "#1d59b3", "name": "Harlem - 14th Street", "short_name": "M7", "text_color": "#ffffff", "vehicle": {"icon": "//maps.gstatic.com/mapfiles/transit/iw2/6/bus2.png", "name": "Bus", "type": "BUS"}}, "num_stops": 2}, "travel_mode": "TRANSIT"}, {"distance": {"text": "0.1 mi", "value": 221}, "duration": {"text": "3 mins", "value": 184}, "end_location": {"lat": 40.7587131, "lng": -73.97873129999999}, "html_instructions": "Walk to 35 Rockefeller Plaza, New York, NY 10111, USA", "polyline": {"points": "e{wwFvhpbMJHPBBBBER_@ROTs@@ClAoECSJ]JF"}, "start_location": {"lat": 40.7597064, "lng": -73.9804358}, "steps": [{"distance": {"text": "69 ft", "value": 21}, "duration": {"text": "1 min", "value": 16}, "end_location": {"lat": 40.7595356, "lng": -73.9805325}, "html_instructions": "Head <b>southwest</b> on <b>6th Ave</b>/<wbr/><b>Ave of the Americas</b>", "polyline": {"points": "e{wwFvhpbMJHPBBB"}, "start_location": {"lat": 40.7597064, "lng": -73.9804358}, "travel_mode": "WALKING"}, {"distance": {"text": "49 ft", "value": 15}, "duration": {"text": "1 min", "value": 12}, "end_location": {"lat": 40.7595239, "lng": -73.98050099999999}, "html_instructions": "Turn <b>left</b> toward <b>Rockefeller Plaza</b>", "maneuver": "turn-left", "polyline": {"points": "czwwFhipbMBE"}, "start_location": {"lat": 40.7595356, "lng": -73.9805325}, "travel_mode": "WALKING"}, {"building_level": {"number": 0}, "distance": {"text": "0.1 mi", "value": 164}, "duration": {"text": "2 mins", "value": 140}, "end_location": {"lat": 40.7588269, "lng": -73.9788404}, "html_instructions": "Walk for 0.1 mi", "polyline": {"points": "_zwwFbipbMR_@ROTs@@ClAoECS"}, "start_location": {"lat": 40.7595239, "lng": -73.98050099999999}, "travel_mode": "WALKING"}, {"distance": {"text": "46 ft", "value": 14}, "duration": {"text": "1 min", "value": 11}, "end_location": {"lat": 40.7587672, "lng": -73.978692}, "html_instructions": "Head <b>southeast</b> toward <b>Rockefeller Plaza</b>", "polyline": {"points": "uuwwFv~obMJ]"}, "start_location": {"lat": 40.7588269, "lng": -73.9788404}, "travel_mode": "WALKING"}, {"distance": {"text": "23 ft", "value": 7}, "duration": {"text": "1 min", "value": 5}, "end_location": {"lat": 40.7587131, "lng": -73.97873129999999}, "html_instructions": "Turn <b>right</b> onto <b>Rockefeller Plaza</b><div style=\"font-size:0.9em\">Destination will be on the left</div>", "maneuver": "turn-right", "polyline": {"points": "iuwwFx}obMJF"}, "start_location": {"lat": 40.7587672, "lng": -73.978692}, "travel_mode": "WALKING"}], "travel_mode": "WALKING"}], "traffic_speed_entry": [], "via_waypoint": []}], "overview_polyline": {"points": "spwwFlhqbM|D_M^sABKRq@a@WIVq@e@o@c@eDwBkD}BmAw@_@UGEHWNPTFVe@ROTs@nAsECSJ]JF"}, "summary": "", "warnings": ["Walking directions are in beta. Use caution \u2013 This route may be missing sidewalks or pedestrian paths."], "waypoint_order": []}], "status": "OK"}