{"geocoded_waypoints": [{"geocoder_status": "OK", "place_id": "ChIJwfFK7zpawokRE-erMLxaSdc", "types": ["street_address", "subpremise"]}, {"geocoder_status": "OK", "place_id": "ChIJaxROZDFawokRNr8xIAKPUT0", "types": ["street_address", "subpremise"]}, {"geocoder_status": "OK", "place_id": "ChIJCVkMNzhawokR73GAlzI1pXM", "types": ["premise", "street_address"]}], "routes": [{"bounds": {"northeast": {"lat": 40.7060651, "lng": -73.9885477}, "southwest": {"lat": 40.699669, "lng": -73.9969484}}, "copyrights": "Powered by Google, \u00a92026 Google", "legs": [{"distance": {"text": "1.0 mi", "value": 1537}, "duration": {"text": "5 mins", "value": 279}, "end_address": "125 Water St, Brooklyn, NY 11201, USA", "end_location": {"lat": 40.7032041, "lng": -73.98940379999999}, "start_address": "17 Prospect St, Brooklyn, NY 11201, USA", "start_location": {"lat": 40.7060651, "lng": -73.9969484}, "steps": [{"distance": {"text": "0.5 mi", "value": 814}, "duration": {"text": "1 min", "value": 61}, "end_location": {"lat": 40.7007699, "lng": -73.99027939999999}, "html_instructions": "Head <b>southeast</b> on <b>Brooklyn Brg</b>", "polyline": {"points": "}kmwF|osbMV]lAaBX_@@A~BaDnCuDX_@n@{@t@cARYJK`B}BPST[PUBEBCFKHILQLSHKf@q@PURYPUPUj@w@j@u@b@m@HMLO?ABCJQ"}, "start_location": {"lat": 40.7060651, "lng": -73.9969484}, "travel_mode": "DRIVING"}, {"distance": {"text": "0.1 mi", "value": 169}, "duration": {"text": "1 min", "value": 47}, "end_location": {"lat": 40.7001753, "lng": -73.9908257}, "html_instructions": "Take the exit toward <b>Bklyn-Qns Expy</b>", "maneuver": "ramp-right", "polyline": {"points": "yjlwFffrbMHCBA@ABCHGHGHGHC?AB?@AB?BA@?FAH?F?H@F@F@FBFDNFBLBD?B@@?D@@?B@@?B?D?F?FAF?DABCHADED?@A@CBA@CBC@EBQF"}, "start_location": {"lat": 40.7007699, "lng": -73.99027939999999}, "travel_mode": "DRIVING"}, {"distance": {"text": "30 ft", "value": 9}, "duration": {"text": "1 min", "value": 3}, "end_location": {"lat": 40.7002531, "lng": -73.99079619999999}, "html_instructions": "Merge onto <b>Cadman Plz W</b>", "maneuver": "merge", "polyline": {"points": "cglwFtirbMME"}, "start_location": {"lat": 40.7001753, "lng": -73.9908257}, "travel_mode": "DRIVING"}, {"distance": {"text": "0.1 mi", "value": 211}, "duration": {"text": "1 min", "value": 57}, "end_location": {"lat": 40.70070949999999, "lng": -73.9886831}, "html_instructions": "Turn <b>right</b> onto <b>Prospect St</b>", "maneuver": "turn-right", "polyline": {"points": "qglwFnirbMOOECMGOGGCQGAAAACCAAACACACEK@aCBgB@aA?A?A?I?["}, "start_location": {"lat": 40.7002531, "lng": -73.99079619999999}, "travel_mode": "DRIVING"}, {"distance": {"text": "0.2 mi", "value": 280}, "duration": {"text": "2 mins", "value": 92}, "end_location": {"lat": 40.70318959999999, "lng": -73.98876849999999}, "html_instructions": "Turn <b>left</b> onto <b>Adams St</b>", "maneuver": "turn-left", "polyline": {"points": "mjlwFf|qbMS?C??AqAEO?A?C?[AG?MAa@?e@Am@CYAc@AQCI?EAE?I@E?GBQDOHg@V"}, "start_location": {"lat": 40.70070949999999, "lng": -73.9886831}, "travel_mode": "DRIVING"}, {"distance": {"text": "177 ft", "value": 54}, "duration": {"text": "1 min", "value": 19}, "end_location": {"lat": 40.7032041, "lng": -73.98940379999999}, "html_instructions": "Turn <b>left</b> onto <b>Water St</b><div style=\"font-size:0.9em\">Destination will be on the right</div>", "maneuver": "turn-left", "polyline": {"points": "}ylwFx|qbM?VAdB"}, "start_location": {"lat": 40.70318959999999, "lng": -73.98876849999999}, "travel_mode": "DRIVING"}], "traffic_speed_entry": [], "via_waypoint": []}, {"distance": {"text": "0.5 mi", "value": 868}, "duration": {"text": "4 mins", "value": 253}, "end_address": "122 Columbia Heights, Brooklyn, NY 11201, USA", "end_location": {"lat": 40.699669, "lng": -73.9964866}, "start_address": "125 Water St, Brooklyn, NY 11201, USA", "start_location": {"lat": 40.7032041, "lng": -73.98940379999999}, "steps": [{"distance": {"text": "0.3 mi", "value": 442}, "duration": {"text": "3 mins", "value": 174}, "end_location": {"lat": 40.7029235, "lng": -73.9943682}, "html_instructions": "Head <b>west</b> on <b>Water St</b> toward <b>Washington St</b>", "polyline": {"points": "_zlwFv`rbMAd@GvE?J?PExC?DAPAj@ChB?R?TChA?DAhBAZ?T@JBHDFVVNLDF@@FD@@DFB@@@DD"}, "start_location": {"lat": 40.7032041, "lng": -73.98940379999999}, "travel_mode": "DRIVING"}, {"distance": {"text": "131 ft", "value": 40}, "duration": {"text": "1 min", "value": 15}, "end_location": {"lat": 40.7028857, "lng": -73.994782}, "html_instructions": "Turn <b>right</b> onto <b>Old Fulton St</b>", "maneuver": "turn-right", "polyline": {"points": "gxlwFx_sbMCJCH?B?DAB?@?B?BA@?@?D@D@DB@BFDB"}, "start_location": {"lat": 40.7029235, "lng": -73.9943682}, "travel_mode": "DRIVING"}, {"distance": {"text": "0.2 mi", "value": 386}, "duration": {"text": "1 min", "value": 64}, "end_location": {"lat": 40.699669, "lng": -73.9964866}, "html_instructions": "<b>Old Fulton St</b> turns slightly <b>left</b> and becomes <b>Furman St</b><div style=\"font-size:0.9em\">Destination will be on the right</div>", "polyline": {"points": "axlwFjbsbMHDRJDDJDFDHDD@FDLFf@Xn@\\LFFBDBB??@d@PVJl@RHDNF@@D@PFLFJDB@D@FBHDB@@?tBx@ZLRHVJJDFB"}, "start_location": {"lat": 40.7028857, "lng": -73.994782}, "travel_mode": "DRIVING"}], "traffic_speed_entry": [], "via_waypoint": []}], "overview_polyline": {"points": "}kmwF|osbMd_@mg@\\g@NG`@[NGPCb@BVJNFBLBHBL@JA\\GRKLOJQFMEUSw@[Ua@FmH?K?[S?CAaBEa@A}AC}BK_@?MBa@Ng@V?VCjCMnKKfHCdC@`@HPf@d@PPJJDDCJCLANALJTfAl@nCvAjCbAdHnC"}, "summary": "Brooklyn Brg", "warnings": [], "waypoint_order": [0]}], "status": "OK"}