{"geocoded_waypoints": [{"geocoder_status": "OK", "place_id": "ChIJR2HV5AFu5kcR3Tv322V6CDE", "types": ["premise", "street_address"]}, {"geocoder_status": "OK", "place_id": "ChIJdQenW0hx5kcRw0KLJcdM3kE", "types": ["establishment", "park", "point_of_interest"]}, {"geocoder_status": "OK", "place_id": "ChIJlWfWXAJu5kcRuVrdZk3CEi4", "types": ["premise", "street_address"]}, {"geocoder_status": "OK", "place_id": "ChIJUYvtXAJu5kcRghsI0QJEVcE", "types": ["premise", "street_address"]}], "routes": [{"bounds": {"northeast": {"lat": 48.8574954, "lng": 2.3656567}, "southwest": {"lat": 48.8539612, "lng": 2.3590514}}, "copyrights": "Powered by Google, \u00a92026 Google", "legs": [{"distance": {"text": "0.6 km", "value": 623}, "duration": {"text": "2 mins", "value": 104}, "end_address": "Louis XIII Square, Paris, Pl. des Vosges, 75004 Paris, France", "end_location": {"lat": 48.8555062, "lng": 2.3656567}, "start_address": "15 Rue de S\u00e9vign\u00e9, 75004 Paris, France", "start_location": {"lat": 48.8564817, "lng": 2.3625976}, "steps": [{"distance": {"text": "0.2 km", "value": 166}, "duration": {"text": "1 min", "value": 26}, "end_location": {"lat": 48.8551198, "lng": 2.3616749}, "html_instructions": "Head <b>south</b> on <b>Rue de S\u00e9vign\u00e9</b> toward <b>Rue de Jarente</b>", "polyline": {"points": "_heiHgmlMnB|@ZNHDFBLHFDHJLLr@h@NL"}, "start_location": {"lat": 48.8564817, "lng": 2.3625976}, "travel_mode": "BICYCLING"}, {"distance": {"text": "0.3 km", "value": 268}, "duration": {"text": "1 min", "value": 44}, "end_location": {"lat": 48.8539612, "lng": 2.3648788}, "html_instructions": "Turn <b>left</b> onto <b>Rue Saint-Antoine</b>", "maneuver": "turn-left", "polyline": {"points": "o_eiHmglMPm@FSFU\\aAXcALc@HYBGLg@@CPw@FYT_ALm@ZyAFW"}, "start_location": {"lat": 48.8551198, "lng": 2.3616749}, "travel_mode": "BICYCLING"}, {"distance": {"text": "0.2 km", "value": 175}, "duration": {"text": "1 min", "value": 32}, "end_location": {"lat": 48.8554807, "lng": 2.3654768}, "html_instructions": "Turn <b>left</b> onto <b>Rue de Birague</b>", "maneuver": "turn-left", "polyline": {"points": "gxdiHo{lM_Cs@k@Q_@KA?OEi@Qg@M"}, "start_location": {"lat": 48.8539612, "lng": 2.3648788}, "travel_mode": "BICYCLING"}, {"distance": {"text": "14 m", "value": 14}, "duration": {"text": "1 min", "value": 2}, "end_location": {"lat": 48.8555062, "lng": 2.3656567}, "html_instructions": "Turn <b>right</b>", "maneuver": "turn-right", "polyline": {"points": "waeiHg_mM?C?C?A?C?C?AAC?AAC?AAC"}, "start_location": {"lat": 48.8554807, "lng": 2.3654768}, "travel_mode": "BICYCLING"}], "traffic_speed_entry": [], "via_waypoint": []}, {"distance": {"text": "0.9 km", "value": 874}, "duration": {"text": "3 mins", "value": 151}, "end_address": "32 Rue des Rosiers, 75004 Paris, France", "end_location": {"lat": 48.857499, "lng": 2.3598641}, "start_address": "Louis XIII Square, Paris, Pl. des Vosges, 75004 Paris, France", "start_location": {"lat": 48.8555062, "lng": 2.3656567}, "steps": [{"distance": {"text": "14 m", "value": 14}, "duration": {"text": "1 min", "value": 2}, "end_location": {"lat": 48.8554807, "lng": 2.3654768}, "html_instructions": "Head <b>west</b>", "polyline": {"points": "}aeiHk`mM@B?@@B?@@B?@?B?B?@?B?B"}, "start_location": {"lat": 48.8555062, "lng": 2.3656567}, "travel_mode": "BICYCLING"}, {"distance": {"text": "0.2 km", "value": 175}, "duration": {"text": "1 min", "value": 27}, "end_location": {"lat": 48.8539612, "lng": 2.3648788}, "html_instructions": "Turn <b>left</b> onto <b>Rue de Birague</b>", "maneuver": "turn-left", "polyline": {"points": "waeiHg_mMf@Lh@PND@?^Jj@P~Br@"}, "start_location": {"lat": 48.8554807, "lng": 2.3654768}, "travel_mode": "BICYCLING"}, {"distance": {"text": "0.3 km", "value": 268}, "duration": {"text": "1 min", "value": 47}, "end_location": {"lat": 48.8551198, "lng": 2.3616749}, "html_instructions": "Turn <b>right</b> onto <b>Rue Saint-Antoine</b>", "maneuver": "turn-right", "polyline": {"points": "gxdiHo{lMGV[xAMl@U~@GXQv@ABMf@CFIXMb@YbA]`AGTGRQl@"}, "start_location": {"lat": 48.8539612, "lng": 2.3648788}, "travel_mode": "BICYCLING"}, {"distance": {"text": "0.1 km", "value": 123}, "duration": {"text": "1 min", "value": 21}, "end_location": {"lat": 48.8554887, "lng": 2.3600908}, "html_instructions": "Continue onto <b>Rue de Rivoli</b>", "polyline": {"points": "o_eiHmglMYdBCRCTG^If@Kv@CREV"}, "start_location": {"lat": 48.8551198, "lng": 2.3616749}, "travel_mode": "BICYCLING"}, {"distance": {"text": "0.1 km", "value": 120}, "duration": {"text": "1 min", "value": 24}, "end_location": {"lat": 48.8564587, "lng": 2.360806}, "html_instructions": "Turn <b>right</b> onto <b>Rue Pav\u00e9e</b>", "maneuver": "turn-right", "polyline": {"points": "yaeiHq}kMk@Yg@WGGkA}@MKKK"}, "start_location": {"lat": 48.8554887, "lng": 2.3600908}, "travel_mode": "BICYCLING"}, {"distance": {"text": "70 m", "value": 70}, "duration": {"text": "1 min", "value": 11}, "end_location": {"lat": 48.8568526, "lng": 2.3600616}, "html_instructions": "Turn <b>left</b> onto <b>Rue des Rosiers</b>", "maneuver": "turn-left", "polyline": {"points": "{geiHablMa@`AMZWh@EL"}, "start_location": {"lat": 48.8564587, "lng": 2.360806}, "travel_mode": "BICYCLING"}, {"distance": {"text": "48 m", "value": 48}, "duration": {"text": "1 min", "value": 9}, "end_location": {"lat": 48.857195, "lng": 2.3604655}, "html_instructions": "Turn <b>right</b>", "maneuver": "turn-right", "polyline": {"points": "ijeiHk}kMe@q@UWIG"}, "start_location": {"lat": 48.8568526, "lng": 2.3600616}, "travel_mode": "BICYCLING"}, {"distance": {"text": "56 m", "value": 56}, "duration": {"text": "1 min", "value": 10}, "end_location": {"lat": 48.857499, "lng": 2.3598641}, "html_instructions": "Turn <b>left</b><div style=\"font-size:0.9em\">Destination will be on the left</div>", "maneuver": "turn-left", "polyline": {"points": "oleiH}_lMCHM\\GLEJUn@ABA@A??@"}, "start_location": {"lat": 48.857195, "lng": 2.3604655}, "travel_mode": "BICYCLING"}], "traffic_speed_entry": [], "via_waypoint": []}, {"distance": {"text": "0.2 km", "value": 198}, "duration": {"text": "1 min", "value": 32}, "end_address": "34 Rue des Rosiers, 75004 Paris, France", "end_location": {"lat": 48.8573711, "lng": 2.3590514}, "start_address": "32 Rue des Rosiers, 75004 Paris, France", "start_location": {"lat": 48.857499, "lng": 2.3598641}, "steps": [{"distance": {"text": "56 m", "value": 56}, "duration": {"text": "1 min", "value": 10}, "end_location": {"lat": 48.857195, "lng": 2.3604655}, "html_instructions": "Head <b>southeast</b>", "polyline": {"points": "kneiHc|kM?A@?@A@CTo@DKFML]BI"}, "start_location": {"lat": 48.857499, "lng": 2.3598641}, "travel_mode": "BICYCLING"}, {"distance": {"text": "48 m", "value": 48}, "duration": {"text": "1 min", "value": 7}, "end_location": {"lat": 48.8568526, "lng": 2.3600616}, "html_instructions": "Turn <b>right</b> toward <b>Rue des Rosiers</b>", "maneuver": "turn-right", "polyline": {"points": "oleiH}_lMHFTVd@p@"}, "start_location": {"lat": 48.857195, "lng": 2.3604655}, "travel_mode": "BICYCLING"}, {"distance": {"text": "94 m", "value": 94}, "duration": {"text": "1 min", "value": 15}, "end_location": {"lat": 48.8573711, "lng": 2.3590514}, "html_instructions": "Turn <b>right</b> onto <b>Rue des Rosiers</b><div style=\"font-size:0.9em\">Destination will be on the right</div>", "maneuver": "turn-right", "polyline": {"points": "ijeiHk}kMQ^EJIRCFENIVGPIPOZMTAB"}, "start_location": {"lat": 48.8568526, "lng": 2.3600616}, "travel_mode": "BICYCLING"}], "traffic_speed_entry": [], "via_waypoint": []}], "overview_polyline": {"points": "_heiHgmlM|CvAl@h@bAv@XaAlA_E\\mA|@_Eb@qBkDeA{Ac@g@M?C?EAMCKBJ@L?D?Bf@Lx@V`@JjDdAc@pB}@~D]lAmA~DY`A]xBa@tCIj@sAq@mB}AmAtC{@iAIGCHUj@[z@ED@?^aATk@BIHFz@hAWj@]bAQb@]p@AB"}, "summary": "Rue de S\u00e9vign\u00e9 and Rue Saint-Antoine", "warnings": ["Bicycling directions are in beta. Use caution \u2013 This route may contain streets that aren't suited for bicycling."], "waypoint_order": [0, 1]}], "status": "OK"}