{"geocoded_waypoints": [{"geocoder_status": "OK", "place_id": "ChIJcdPFYmNgLxMRfvcxfbrnzRg", "types": ["street_address", "subpremise"]}, {"geocoder_status": "OK", "place_id": "ChIJQyphskZgLxMRtcyI7PJX64o", "types": ["establishment", "point_of_interest", "transit_station"]}], "routes": [{"bounds": {"northeast": {"lat": 41.9068563, "lng": 12.4673107}, "southwest": {"lat": 41.8944076, "lng": 12.4535493}}, "copyrights": "Powered by Google, \u00a92026 Google", "legs": [{"arrival_time": {"text": "3:58\u202fPM", "time_zone": "Europe/Rome", "value": 1767365923}, "departure_time": {"text": "3:35\u202fPM", "time_zone": "Europe/Rome", "value": 1767364502}, "distance": {"text": "2.7 km", "value": 2697}, "duration": {"text": "24 mins", "value": 1421}, "end_address": "Lgt Farnesina, 00165 Roma RM, Italy", "end_location": {"lat": 41.8944076, "lng": 12.4673107}, "start_address": "Viale Vaticano, 100, 00192 Roma RM, Italy", "start_location": {"lat": 41.9066752, "lng": 12.4535493}, "steps": [{"distance": {"text": "0.9 km", "value": 939}, "duration": {"text": "12 mins", "value": 747}, "end_location": {"lat": 41.9055961, "lng": 12.4590371}, "html_instructions": "Walk to Risorgimento/Porta Angelica", "polyline": {"points": "w{w~Fui_kAAQCQAOC[Iq@Im@AOAGBOFk@?CDUFU@CFO@C?AB?XEh@AAQD?ZAL?V?FAFAJE@ABC@CLKD?BADAFAH?F?H?x@B~@@F?hA@v@@L??QBG@SBm@@[?Q@]BYDsACU@S@_@B}@@O@?@I@UC?H{CB??C@]K?YA_AE?CIAm@AU@gBK@EA?E?CAADaACHW"}, "start_location": {"lat": 41.9066752, "lng": 12.4535493}, "steps": [{"distance": {"text": "0.2 km", "value": 194}, "duration": {"text": "3 mins", "value": 166}, "end_location": {"lat": 41.90631339999999, "lng": 12.4552562}, "html_instructions": "Head <b>east</b><div style=\"font-size:0.9em\">Restricted usage road</div>", "polyline": {"points": "w{w~Fui_kAAQCQAOC[Iq@Im@AOAGBOFk@?CDUFU@CFO@C?AB?XEh@A"}, "start_location": {"lat": 41.9066752, "lng": 12.4535493}, "travel_mode": "WALKING"}, {"distance": {"text": "0.2 km", "value": 246}, "duration": {"text": "3 mins", "value": 188}, "end_location": {"lat": 41.9040812, "lng": 12.455502}, "html_instructions": "Continue straight<div style=\"font-size:0.9em\">Restricted usage road</div>", "maneuver": "straight", "polyline": {"points": "myw~Fkt_kAAQD?ZAL?V?FAFAJE@ABC@CLKD?BADAFAH?F?H?x@B~@@F?hA@v@@L?"}, "start_location": {"lat": 41.90631339999999, "lng": 12.4552562}, "travel_mode": "WALKING"}, {"distance": {"text": "0.2 km", "value": 182}, "duration": {"text": "2 mins", "value": 136}, "end_location": {"lat": 41.9039399, "lng": 12.4575655}, "html_instructions": "Turn <b>left</b> onto <b>V. Sant'Anna</b><div style=\"font-size:0.9em\">Restricted usage road</div><div style=\"font-size:0.9em\">Entering Italy</div>", "maneuver": "turn-left", "polyline": {"points": "okw~F{u_kA?QBG@SBm@@[?Q@]BYDsACU@S@_@B}@"}, "start_location": {"lat": 41.9040812, "lng": 12.455502}, "travel_mode": "WALKING"}, {"distance": {"text": "10 m", "value": 10}, "duration": {"text": "1 min", "value": 7}, "end_location": {"lat": 41.9039119, "lng": 12.4577035}, "html_instructions": "Continue straight to stay on <b>V. Sant'Anna</b><div style=\"font-size:0.9em\">Restricted usage road</div>", "maneuver": "straight", "polyline": {"points": "sjw~Fyb`kA@O@?@I"}, "start_location": {"lat": 41.9039399, "lng": 12.4575655}, "travel_mode": "WALKING"}, {"distance": {"text": "79 m", "value": 79}, "duration": {"text": "1 min", "value": 61}, "end_location": {"lat": 41.9038433, "lng": 12.4587601}, "html_instructions": "Continue onto <b>Borgo Pio</b>", "polyline": {"points": "mjw~Fsc`kA@UC?H{CB??C@]"}, "start_location": {"lat": 41.9039119, "lng": 12.4577035}, "travel_mode": "WALKING"}, {"distance": {"text": "0.2 km", "value": 207}, "duration": {"text": "3 mins", "value": 173}, "end_location": {"lat": 41.90564699999999, "lng": 12.4589228}, "html_instructions": "Turn <b>left</b> onto <b>Via del Mascherino</b>", "maneuver": "turn-left", "polyline": {"points": "_jw~Fgj`kAK?YA_AE?CIAm@AU@gBK@EA?E?CAADaAC"}, "start_location": {"lat": 41.9038433, "lng": 12.4587601}, "travel_mode": "WALKING"}, {"distance": {"text": "21 m", "value": 21}, "duration": {"text": "1 min", "value": 16}, "end_location": {"lat": 41.9055961, "lng": 12.4590371}, "html_instructions": "Turn <b>right</b> onto <b>Via Stefano Porcari</b><div style=\"font-size:0.9em\">Destination will be on the right</div>", "maneuver": "turn-right", "polyline": {"points": "iuw~Fgk`kAHW"}, "start_location": {"lat": 41.90564699999999, "lng": 12.4589228}, "travel_mode": "WALKING"}], "travel_mode": "WALKING"}, {"distance": {"text": "1.4 km", "value": 1399}, "duration": {"text": "6 mins", "value": 358}, "end_location": {"lat": 41.89619099999999, "lng": 12.464867}, "html_instructions": "Bus towards Partigiani (Fs)", "polyline": {"points": "ytw~F{k`kASMHS`@wABI^{ARy@H[`@cBh@cB^{A@GDO\\wARs@XcAz@Hj@D|@DpAL`@B@?n@FJ?L@XADA@?@ABCDGZc@b@o@V_@BCXc@LPJPFHHJDHFHHNDDJJJJLH@BLHFBRLFBJDRFFBHBj@LXFB@LBRBJDHDBDBF@?H?F?HBF@J?FA|@QNEZI@?@?\\SBC^Q@E@A?A?C?A?ACC~@o@HKROz@m@~@q@~@m@\\W~@o@dAw@@?RQLKBF"}, "start_location": {"lat": 41.90557099999999, "lng": 12.459015}, "transit_details": {"arrival_stop": {"location": {"lat": 41.89619099999999, "lng": 12.464867}, "name": "Lgt Gianicolense/Regina Coeli"}, "arrival_time": {"text": "3:53\u202fPM", "time_zone": "Europe/Rome", "value": 1767365608}, "departure_stop": {"location": {"lat": 41.90557099999999, "lng": 12.459015}, "name": "Risorgimento/Porta Angelica"}, "departure_time": {"text": "3:47\u202fPM", "time_zone": "Europe/Rome", "value": 1767365250}, "headsign": "Partigiani (Fs)", "line": {"agencies": [{"name": "ATAC", "phone": "011 39 06 57003", "url": "https://romamobilita.it/it"}], "color": "#336d4a", "short_name": "280", "text_color": "#ffffff", "url": "https://muoversiaroma.it/it/linea?numero=280", "vehicle": {"icon": "//maps.gstatic.com/mapfiles/transit/iw2/6/bus2.png", "name": "Bus", "type": "BUS"}}, "num_stops": 5}, "travel_mode": "TRANSIT"}, {"distance": {"text": "0.4 km", "value": 359}, "duration": {"text": "5 mins", "value": 315}, "end_location": {"lat": 41.8944076, "lng": 12.4673107}, "html_instructions": "Walk to Lgt Farnesina, 00165 Roma RM, Italy", "polyline": {"points": "czu~FepakAd@_@JIZ[JOHIACMSR_@R]T_@C@GHQVILA??@EEX]Xa@T[BCXa@Xa@Va@Xa@Xa@Z_@T]"}, "start_location": {"lat": 41.8961771, "lng": 12.4648341}, "steps": [{"distance": {"text": "75 m", "value": 75}, "duration": {"text": "1 min", "value": 60}, "end_location": {"lat": 41.8956947, "lng": 12.465328}, "html_instructions": "Head <b>southeast</b> on <b>Lungotevere Gianicolense</b> toward <b>Ponte Giuseppe Mazzini</b>", "polyline": {"points": "czu~FepakAd@_@JIZ[JOHIAC"}, "start_location": {"lat": 41.8961771, "lng": 12.4648341}, "travel_mode": "WALKING"}, {"distance": {"text": "44 m", "value": 44}, "duration": {"text": "1 min", "value": 48}, "end_location": {"lat": 41.8954533, "lng": 12.4658978}, "html_instructions": "Continue onto <b>Lungotevere Farnesina</b>", "polyline": {"points": "awu~FisakAMSR_@R]T_@"}, "start_location": {"lat": 41.8956947, "lng": 12.465328}, "travel_mode": "WALKING"}, {"distance": {"text": "43 m", "value": 43}, "duration": {"text": "1 min", "value": 50}, "end_location": {"lat": 41.89568670000001, "lng": 12.4656714}, "html_instructions": "Turn <b>left</b><div style=\"font-size:0.9em\">Take the stairs</div>", "maneuver": "turn-left", "polyline": {"points": "quu~F{vakAC@GHQVILA??@EE"}, "start_location": {"lat": 41.8954533, "lng": 12.4658978}, "travel_mode": "WALKING"}, {"distance": {"text": "0.2 km", "value": 197}, "duration": {"text": "3 mins", "value": 157}, "end_location": {"lat": 41.8944076, "lng": 12.4673107}, "html_instructions": "Sharp <b>right</b>", "maneuver": "turn-sharp-right", "polyline": {"points": "awu~FmuakAX]Xa@T[BCXa@Xa@Va@Xa@Xa@Z_@T]"}, "start_location": {"lat": 41.89568670000001, "lng": 12.4656714}, "travel_mode": "WALKING"}], "travel_mode": "WALKING"}], "traffic_speed_entry": [], "via_waypoint": []}], "overview_polyline": {"points": "w{w~Fui_kAc@gEPuARm@BAbAGAQD?h@A^ARGTUVEtABhEDL??QD[FyBHmBAi@D}ABOB_@C?H{CBC@]K?yAG?CIAm@AU@gBK?EIAADaACHWDBSMHSd@aB~AuGhA_EFWp@kCXcAz@HhBJrBPjAH^CBAhA_BZc@Xc@LPRZNTPXPPh@b@n@ZpA\\~@PTJFLJ?PBR@dASn@O`@W`@W@ICEhA{@nE}CdD_C`@]DNp@i@f@k@HIACMSR_@h@}@KJ]f@EEX]n@}@nAiBdBaC"}, "summary": "", "warnings": ["Walking directions are in beta. Use caution \u2013 This route may be missing sidewalks or pedestrian paths."], "waypoint_order": []}], "status": "OK"}