{"geocoded_waypoints": [{"geocoder_status": "OK", "place_id": "ChIJHaYZ-hRsEg0Rn04GFOxg6vU", "types": ["street_address", "subpremise"]}, {"geocoder_status": "OK", "place_id": "ChIJlyTNZxRsEg0RwIsmC6ytvGc", "types": ["premise", "street_address"]}, {"geocoder_status": "OK", "place_id": "ChIJq8NExxdsEg0R-GGE1cKWQSc", "types": ["establishment", "point_of_interest", "transit_station"]}, {"geocoder_status": "OK", "place_id": "ChIJRyhYjRZsEg0RUWeDvNPLPZU", "types": ["establishment", "point_of_interest"]}, {"geocoder_status": "OK", "place_id": "ChIJQ9YGXhNsEg0RRxf3Q2AnMuc", "types": ["street_address", "subpremise"]}, {"geocoder_status": "OK", "place_id": "ChIJzxvu7BRsEg0REGk0zqk002I", "types": ["premise", "street_address"]}], "routes": [{"bounds": {"northeast": {"lat": 37.3873804, "lng": -5.995442199999999}, "southwest": {"lat": 37.3802887, "lng": -6.003724699999999}}, "copyrights": "Powered by Google, \u00a92026 Google", "legs": [{"distance": {"text": "0.2 km", "value": 225}, "duration": {"text": "1 min", "value": 79}, "end_address": "C. Pureza, 57, 41010 Sevilla, Spain", "end_location": {"lat": 37.3839149, "lng": -6.001127}, "start_address": "Pelay Correa, 4, 41010 Sevilla, Spain", "start_location": {"lat": 37.383442, "lng": -6.002185799999999}, "steps": [{"distance": {"text": "24 m", "value": 24}, "duration": {"text": "1 min", "value": 4}, "end_location": {"lat": 37.3832581, "lng": -6.0023285}, "html_instructions": "Head <b>southwest</b> on <b>Pelay Correa</b> toward <b>C. Rodrigo de Triana</b>", "polyline": {"points": "omdcFthsc@b@Z"}, "start_location": {"lat": 37.383442, "lng": -6.002185799999999}, "travel_mode": "BICYCLING"}, {"distance": {"text": "61 m", "value": 61}, "duration": {"text": "1 min", "value": 11}, "end_location": {"lat": 37.3829851, "lng": -6.0017355}, "html_instructions": "Turn <b>left</b> onto <b>C. Rodrigo de Triana</b>", "maneuver": "turn-left", "polyline": {"points": "kldcFpisc@t@uB"}, "start_location": {"lat": 37.3832581, "lng": -6.0023285}, "travel_mode": "BICYCLING"}, {"distance": {"text": "0.1 km", "value": 108}, "duration": {"text": "1 min", "value": 20}, "end_location": {"lat": 37.3836944, "lng": -6.0008928}, "html_instructions": "Turn <b>left</b> onto <b>C. Sant\u00edsimo Cristo de las Tres Ca\u00eddas</b>", "maneuver": "turn-left", "polyline": {"points": "ujdcFzesc@IKOQKMQWsAeB"}, "start_location": {"lat": 37.3829851, "lng": -6.0017355}, "travel_mode": "BICYCLING"}, {"distance": {"text": "32 m", "value": 32}, "duration": {"text": "1 min", "value": 44}, "end_location": {"lat": 37.3839149, "lng": -6.001127}, "html_instructions": "Turn <b>left</b> onto <b>C. Pureza</b><div style=\"font-size:0.9em\">Walk your bicycle</div><div style=\"font-size:0.9em\">Destination will be on the right</div>", "maneuver": "turn-left", "polyline": {"points": "aodcFp`sc@k@n@"}, "start_location": {"lat": 37.3836944, "lng": -6.0008928}, "travel_mode": "BICYCLING"}], "traffic_speed_entry": [], "via_waypoint": []}, {"distance": {"text": "0.9 km", "value": 873}, "duration": {"text": "3 mins", "value": 206}, "end_address": "Paseo Colon, Casco Antiguo, 41001 Sevilla, Spain", "end_location": {"lat": 37.3820785, "lng": -5.996280899999999}, "start_address": "C. Pureza, 57, 41010 Sevilla, Spain", "start_location": {"lat": 37.3839149, "lng": -6.001127}, "steps": [{"distance": {"text": "0.3 km", "value": 322}, "duration": {"text": "1 min", "value": 55}, "end_location": {"lat": 37.3816875, "lng": -5.9988008}, "html_instructions": "Head <b>southeast</b> on <b>C. Pureza</b> toward <b>C. Sant\u00edsimo Cristo de las Tres Ca\u00eddas</b>", "polyline": {"points": "mpdcF`bsc@j@o@jBqBVWTYrAkAdA}@zAsB"}, "start_location": {"lat": 37.3839149, "lng": -6.001127}, "travel_mode": "BICYCLING"}, {"distance": {"text": "33 m", "value": 33}, "duration": {"text": "1 min", "value": 6}, "end_location": {"lat": 37.3818306, "lng": -5.9984684}, "html_instructions": "Turn <b>left</b> onto <b>C. Troya</b>", "maneuver": "turn-left", "polyline": {"points": "qbdcFnsrc@[aA"}, "start_location": {"lat": 37.3816875, "lng": -5.9988008}, "travel_mode": "BICYCLING"}, {"distance": {"text": "0.2 km", "value": 204}, "duration": {"text": "1 min", "value": 43}, "end_location": {"lat": 37.3802887, "lng": -5.9972718}, "html_instructions": "Turn <b>right</b> onto <b>C. Betis</b>", "maneuver": "turn-right", "polyline": {"points": "mcdcFlqrc@pAmAtAoARKHADAHOBCJCh@STIDEFE"}, "start_location": {"lat": 37.3818306, "lng": -5.9984684}, "travel_mode": "BICYCLING"}, {"distance": {"text": "0.2 km", "value": 193}, "duration": {"text": "1 min", "value": 67}, "end_location": {"lat": 37.3812289, "lng": -5.995442199999999}, "html_instructions": "Turn <b>left</b> onto <b>Puente de S. Telmo</b>", "maneuver": "turn-left", "polyline": {"points": "yyccF|irc@ISAAQc@Se@Sg@Se@Qe@Se@Se@Qc@KUIS"}, "start_location": {"lat": 37.3802887, "lng": -5.9972718}, "travel_mode": "BICYCLING"}, {"distance": {"text": "0.1 km", "value": 121}, "duration": {"text": "1 min", "value": 35}, "end_location": {"lat": 37.3820785, "lng": -5.996280899999999}, "html_instructions": "Turn <b>left</b> onto <b>P.\u00ba Alcalde Marqu\u00e9s del Contadero</b><div style=\"font-size:0.9em\">Destination will be on the right</div>", "maneuver": "turn-left", "polyline": {"points": "u_dcFn~qc@]VWNCBEBEDIDKJY\\GFGJORSX"}, "start_location": {"lat": 37.3812289, "lng": -5.995442199999999}, "travel_mode": "BICYCLING"}], "traffic_speed_entry": [], "via_waypoint": []}, {"distance": {"text": "0.8 km", "value": 795}, "duration": {"text": "3 mins", "value": 183}, "end_address": "P.\u00ba de Crist\u00f3bal Col\u00f3n, 10, Casco Antiguo, 41001 Sevilla, Spain", "end_location": {"lat": 37.3856128, "lng": -5.9993418}, "start_address": "Paseo Colon, Casco Antiguo, 41001 Sevilla, Spain", "start_location": {"lat": 37.3820785, "lng": -5.996280899999999}, "steps": [{"distance": {"text": "0.6 km", "value": 615}, "duration": {"text": "2 mins", "value": 111}, "end_location": {"lat": 37.38628370000001, "lng": -6.000785200000001}, "html_instructions": "Head <b>northwest</b> on <b>P.\u00ba Alcalde Marqu\u00e9s del Contadero</b>", "polyline": {"points": "_edcFvcrc@ABA@MPMJe@b@QR]Zs@p@_@`@c@b@QRw@z@k@n@{AhBi@j@iBvBkBvB[\\CDCBA@A?A?C?A@[\\{@dA"}, "start_location": {"lat": 37.3820785, "lng": -5.996280899999999}, "travel_mode": "BICYCLING"}, {"distance": {"text": "0.1 km", "value": 102}, "duration": {"text": "1 min", "value": 32}, "end_location": {"lat": 37.3861353, "lng": -5.9999316}, "html_instructions": "Turn <b>right</b> toward <b>P.\u00ba de Crist\u00f3bal Col\u00f3n</b>", "maneuver": "turn-right", "polyline": {"points": "g_ecF|_sc@U[AC?A?A?A?A@A?A@Af@q@VYBA@E?A?A?A?CAA?AACQW"}, "start_location": {"lat": 37.38628370000001, "lng": -6.000785200000001}, "travel_mode": "BICYCLING"}, {"distance": {"text": "78 m", "value": 78}, "duration": {"text": "1 min", "value": 40}, "end_location": {"lat": 37.3856128, "lng": -5.9993418}, "html_instructions": "Turn <b>right</b> onto <b>P.\u00ba de Crist\u00f3bal Col\u00f3n</b><div style=\"font-size:0.9em\">Destination will be on the right</div>", "maneuver": "turn-right", "polyline": {"points": "k~dcFpzrc@JM|AgB"}, "start_location": {"lat": 37.3861353, "lng": -5.9999316}, "travel_mode": "BICYCLING"}], "traffic_speed_entry": [], "via_waypoint": []}, {"distance": {"text": "0.5 km", "value": 510}, "duration": {"text": "2 mins", "value": 136}, "end_address": "Pl. del Altozano, s/n, 41001 Sevilla, Spain", "end_location": {"lat": 37.3856275, "lng": -6.0030189}, "start_address": "P.\u00ba de Crist\u00f3bal Col\u00f3n, 10, Casco Antiguo, 41001 Sevilla, Spain", "start_location": {"lat": 37.3856128, "lng": -5.9993418}, "steps": [{"distance": {"text": "0.3 km", "value": 270}, "duration": {"text": "1 min", "value": 50}, "end_location": {"lat": 37.3873804, "lng": -6.001439599999999}, "html_instructions": "Head <b>northwest</b> on <b>P.\u00ba de Crist\u00f3bal Col\u00f3n</b> toward <b>C. Adriano</b>", "polyline": {"points": "a{dcFzvrc@}AfBKLsA~AGHIHs@|@A@SVY`@OT]h@"}, "start_location": {"lat": 37.3856128, "lng": -5.9993418}, "travel_mode": "BICYCLING"}, {"distance": {"text": "0.2 km", "value": 240}, "duration": {"text": "1 min", "value": 86}, "end_location": {"lat": 37.3856275, "lng": -6.0030189}, "html_instructions": "Turn <b>left</b> onto <b>Puente de Isabel II</b><div style=\"font-size:0.9em\">Destination will be on the right</div>", "maneuver": "turn-left", "polyline": {"points": "cfecF~csc@f@d@LLNNNLLLLLdBxAfBxARPHF"}, "start_location": {"lat": 37.3873804, "lng": -6.001439599999999}, "travel_mode": "BICYCLING"}], "traffic_speed_entry": [], "via_waypoint": []}, {"distance": {"text": "0.2 km", "value": 237}, "duration": {"text": "1 min", "value": 32}, "end_address": "C. Flota, 6, 41010 Sevilla, Spain", "end_location": {"lat": 37.3841489, "lng": -6.002621}, "start_address": "Pl. del Altozano, s/n, 41001 Sevilla, Spain", "start_location": {"lat": 37.3856275, "lng": -6.0030189}, "steps": [{"distance": {"text": "0.1 km", "value": 110}, "duration": {"text": "1 min", "value": 13}, "end_location": {"lat": 37.3848092, "lng": -6.003724699999999}, "html_instructions": "Head <b>southwest</b> on <b>Puente de Isabel II</b> toward <b>C. San Jorge</b>", "polyline": {"points": "e{dcFzmsc@RN\\X\\XVPz@t@"}, "start_location": {"lat": 37.3856275, "lng": -6.0030189}, "travel_mode": "BICYCLING"}, {"distance": {"text": "0.1 km", "value": 109}, "duration": {"text": "1 min", "value": 16}, "end_location": {"lat": 37.3842114, "lng": -6.0028076}, "html_instructions": "Turn <b>left</b> onto <b>Cj\u00f3n. Valladares</b>", "maneuver": "turn-left", "polyline": {"points": "avdcFfrsc@r@uAFEFADADABA@A@EDKNa@H["}, "start_location": {"lat": 37.3848092, "lng": -6.003724699999999}, "travel_mode": "BICYCLING"}, {"distance": {"text": "18 m", "value": 18}, "duration": {"text": "1 min", "value": 3}, "end_location": {"lat": 37.3841489, "lng": -6.002621}, "html_instructions": "Continue onto <b>C. Roc\u00edo</b><div style=\"font-size:0.9em\">Destination will be on the right</div>", "polyline": {"points": "irdcFplsc@Je@"}, "start_location": {"lat": 37.3842114, "lng": -6.0028076}, "travel_mode": "BICYCLING"}], "traffic_speed_entry": [], "via_waypoint": []}], "overview_polyline": {"points": "omdcFthsc@b@Zt@uBY]]e@sAeBk@n@vCaDl@q@xCiCzAsB[aAfD}C\\MDAHONG~@]LKq@_BiCmG_An@OJe@h@s@`A_@b@uArAiCjC_NtOIDE@wAbBWa@@G`AoADIAIAEQWJM|AgB}AfB_BlBgArA{AxBtApAhFnEnAbAt@j@z@t@r@uANGJCDCFQd@cB"}, "summary": "C. Rodrigo de Triana and C. Sant\u00edsimo Cristo de las Tres Ca\u00eddas", "warnings": ["Bicycling directions are in beta. Use caution \u2013 This route may contain streets that aren't suited for bicycling."], "waypoint_order": [3, 0, 1, 2]}], "status": "OK"}